[
  {
    "name": "Pacific Edge",
    "lat": 36.9680396,
    "lon": -122.006511,
    "city": "Santa Cruz",
    "state": "California",
    "website": "https://pacificedgeclimbinggym.com/",
    "opening_hours": "Mo 15:00-23:00, Tu 06:00-23:00, We 08:00-23:00, Th 06:00-23:00, Fr 08:00-22:00, Sa-Su 09:00-21:00",
    "osm_id": 420406512,
    "osm_type": "node"
  },
  {
    "name": "Momentum Indoor Climbing Millcreek",
    "lat": 40.7011984,
    "lon": -111.8033915,
    "city": "",
    "state": "",
    "website": "",
    "opening_hours": "",
    "osm_id": 427844887,
    "osm_type": "node"
  },
  {
    "name": "Vertical Hold",
    "lat": 32.744932,
    "lon": -117.188995,
    "city": "San Diego",
    "state": "California",
    "website": "https://www.verticalhold.com/",
    "opening_hours": "",
    "osm_id": 597073119,
    "osm_type": "node"
  },
  {
    "name": "The Boiler Room Climbing Gym",
    "lat": 44.2441537,
    "lon": -76.5141917,
    "city": "Kingston",
    "state": "",
    "website": "",
    "opening_hours": "Mo-Fr 10:00-23:00 Sa-Su 09:00-21:00",
    "osm_id": 790668139,
    "osm_type": "node"
  },
  {
    "name": "Fripp Island Climbing Tower",
    "lat": 32.310889,
    "lon": -80.502066,
    "city": "",
    "state": "",
    "website": "",
    "opening_hours": "",
    "osm_id": 1089355025,
    "osm_type": "node"
  },
  {
    "name": "Central Rock Gym Cambridge",
    "lat": 42.3910001,
    "lon": -71.1402257,
    "city": "Cambridge",
    "state": "Massachusetts",
    "website": "https://centralrockgym.com/cambridge/",
    "opening_hours": "Mo-Fr 11:00-22:30; Sa,Su 10:00-18:00",
    "osm_id": 1116423555,
    "osm_type": "node"
  },
  {
    "name": "Movement Rockville",
    "lat": 39.0786375,
    "lon": -77.1434286,
    "city": "Rockville",
    "state": "Maryland",
    "website": "https://movementgyms.com/rockville/",
    "opening_hours": "Mo-Fr 06:00-23:00; Sa 08:00-20:00; Su 08:00-18:00",
    "osm_id": 1230207589,
    "osm_type": "node"
  },
  {
    "name": "Edgeworks Bel-Red Boulders",
    "lat": 47.6253061,
    "lon": -122.154663,
    "city": "Bellevue",
    "state": "Washington",
    "website": "",
    "opening_hours": "",
    "osm_id": 1237271264,
    "osm_type": "node"
  },
  {
    "name": "Northern Heights Rock Gym",
    "lat": 47.9022276,
    "lon": -97.04896,
    "city": "",
    "state": "",
    "website": "",
    "opening_hours": "Mo-Fr 05:00-9:00; Sa-Su 12:00-17:00",
    "osm_id": 1328882712,
    "osm_type": "node"
  },
  {
    "name": "Total Fitness",
    "lat": 31.6861064,
    "lon": -106.408732,
    "city": "",
    "state": "",
    "website": "https://www.totalfitnessjuarez.com/",
    "opening_hours": "",
    "osm_id": 1609784277,
    "osm_type": "node"
  },
  {
    "name": "The Edge Halfmoon (Climbing Gym)",
    "lat": 42.8424016,
    "lon": -73.7517088,
    "city": "Halfmoon",
    "state": "",
    "website": "",
    "opening_hours": "Mo-Fr 14:00-22:00; Sa 09:00-21:00; Su 13:00-19:00",
    "osm_id": 1615140884,
    "osm_type": "node"
  },
  {
    "name": "Vertige",
    "lat": 45.3969909,
    "lon": -71.8894548,
    "city": "Sherbrooke",
    "state": "",
    "website": "http://www.vertige-escalade.com",
    "opening_hours": "",
    "osm_id": 1950127022,
    "osm_type": "node"
  },
  {
    "name": "Shakti Rock Gym",
    "lat": 45.5275845,
    "lon": -73.5976905,
    "city": "",
    "state": "",
    "website": "https://shaktirockgym.com/",
    "opening_hours": "Mo-Fr 10:00-22:00; Sa 10:30-18:00; Su 13:00-18:00",
    "osm_id": 2047454766,
    "osm_type": "node"
  },
  {
    "name": "The Spot Bouldering Gym",
    "lat": 40.0216245,
    "lon": -105.250614,
    "city": "Boulder",
    "state": "Colorado",
    "website": "https://www.thespotgym.com/",
    "opening_hours": "",
    "osm_id": 2082662871,
    "osm_type": "node"
  },
  {
    "name": "Movement Boulder Climbing and Fitness",
    "lat": 40.0299005,
    "lon": -105.2574861,
    "city": "Boulder",
    "state": "Colorado",
    "website": "https://movementgyms.com/boulder/",
    "opening_hours": "",
    "osm_id": 2082663121,
    "osm_type": "node"
  },
  {
    "name": "Hoosier Heights Indoor Climbing",
    "lat": 39.109155,
    "lon": -86.54098,
    "city": "",
    "state": "",
    "website": "",
    "opening_hours": "",
    "osm_id": 2134466758,
    "osm_type": "node"
  },
  {
    "name": "Edgeworks Climbing",
    "lat": 47.6680443,
    "lon": -122.395343,
    "city": "Seattle",
    "state": "",
    "website": "https://edgeworksclimbing.com/seattle/",
    "opening_hours": "Mo-Fr 06:00-22:00; Sa 08:00-22:00; Su 08:00-19:00",
    "osm_id": 2140468429,
    "osm_type": "node"
  },
  {
    "name": "Stone Fort aka LRC",
    "lat": 35.2476526,
    "lon": -85.2204344,
    "city": "",
    "state": "",
    "website": "",
    "opening_hours": "",
    "osm_id": 2223141649,
    "osm_type": "node"
  },
  {
    "name": "Seattle Bouldering Project",
    "lat": 47.6614617,
    "lon": -122.3129642,
    "city": "Seattle",
    "state": "",
    "website": "",
    "opening_hours": "Mo-Fr 06:00-22:00; Sa,Su 07:00-22:00",
    "osm_id": 2323794477,
    "osm_type": "node"
  },
  {
    "name": "Seattle Bouldering Project - SBP",
    "lat": 47.5936174,
    "lon": -122.3109124,
    "city": "Seattle",
    "state": "Washington",
    "website": "https://seattleboulderingproject.com/",
    "opening_hours": "Mo-Fr 06:00-22:00; Sa,Su 09:00-22:00",
    "osm_id": 2372768515,
    "osm_type": "node"
  },
  {
    "name": "Half Moon Bouldering",
    "lat": 47.6912616,
    "lon": -122.3569385,
    "city": "Seattle",
    "state": "",
    "website": "https://halfmoonbouldering.com/",
    "opening_hours": "Mo-Fr 08:00-21:00; Sa-Su 08:00-19:00",
    "osm_id": 2420103499,
    "osm_type": "node"
  },
  {
    "name": "The Stronghold Climbing Gym",
    "lat": 34.063794,
    "lon": -118.216879,
    "city": "Los Angeles",
    "state": "California",
    "website": "https://www.strongholdclimb.com/",
    "opening_hours": "Mo-Fr 06:00-23:00; Sa-Su 08:00-21:00",
    "osm_id": 2440167481,
    "osm_type": "node"
  },
  {
    "name": "The Studio",
    "lat": 37.3303118,
    "lon": -121.8858024,
    "city": "San Jose",
    "state": "California",
    "website": "https://touchstoneclimbing.com/the-studio/",
    "opening_hours": "Mo-Fr 10:00-22:00; Sa-Su 10:00-17:00",
    "osm_id": 2468139102,
    "osm_type": "node"
  },
  {
    "name": "Everyday Athlete",
    "lat": 40.6924745,
    "lon": -73.9934628,
    "city": "",
    "state": "",
    "website": "",
    "opening_hours": "",
    "osm_id": 2494202808,
    "osm_type": "node"
  },
  {
    "name": "Centre d'escalade Roc Gyms",
    "lat": 46.8332458,
    "lon": -71.2456971,
    "city": "",
    "state": "",
    "website": "",
    "opening_hours": "",
    "osm_id": 2515561192,
    "osm_type": "node"
  },
  {
    "name": "Santa Barbara Rock Gym",
    "lat": 34.415565,
    "lon": -119.69358,
    "city": "Santa Barbara",
    "state": "California",
    "website": "https://www.sbrockgym.com/",
    "opening_hours": "Mo-Fr 10:00-22:00; Sa-Su 10:00-20:00",
    "osm_id": 2518032189,
    "osm_type": "node"
  },
  {
    "name": "Kingston Bouldering Co-op",
    "lat": 44.2416845,
    "lon": -76.4828265,
    "city": "Kingston",
    "state": "",
    "website": "https://kingstonboulderingcoop.com/",
    "opening_hours": "",
    "osm_id": 2528045079,
    "osm_type": "node"
  },
  {
    "name": "Stone Age Climbing Gym",
    "lat": 35.1053493,
    "lon": -106.5998044,
    "city": "Albuquerque",
    "state": "",
    "website": "https://climbstoneage.com/",
    "opening_hours": "",
    "osm_id": 2540720995,
    "osm_type": "node"
  },
  {
    "name": "Joe Rockhead's Indoor Rock Climbing",
    "lat": 43.6363231,
    "lon": -79.4233654,
    "city": "Toronto",
    "state": "",
    "website": "https://www.joerockheads.com/",
    "opening_hours": "Mo-Fr 07:00-23:00; Sa-Su 09:00-22:00",
    "osm_id": 2611288831,
    "osm_type": "node"
  },
  {
    "name": "Prime Climb",
    "lat": 41.4549631,
    "lon": -72.8349398,
    "city": "",
    "state": "",
    "website": "https://www.primeclimb.com/",
    "opening_hours": "",
    "osm_id": 2653234792,
    "osm_type": "node"
  },
  {
    "name": "Mountain Fun",
    "lat": 41.4549389,
    "lon": -72.8353501,
    "city": "",
    "state": "",
    "website": "https://www.primeclimb.com/",
    "opening_hours": "",
    "osm_id": 2653234796,
    "osm_type": "node"
  },
  {
    "name": "Vertical Endevours",
    "lat": 44.966448,
    "lon": -93.064688,
    "city": "Saint Paul",
    "state": "",
    "website": "http://verticalendeavors.com/",
    "opening_hours": "",
    "osm_id": 2678268877,
    "osm_type": "node"
  },
  {
    "name": "Go Vertical - Indoor Rock Climbing Gym",
    "lat": 39.9629752,
    "lon": -75.1349855,
    "city": "Philadelphia",
    "state": "",
    "website": "http://www.govertical.com/",
    "opening_hours": "",
    "osm_id": 2699315988,
    "osm_type": "node"
  },
  {
    "name": "Climbing Boulder",
    "lat": 45.6722372,
    "lon": -111.080979,
    "city": "",
    "state": "",
    "website": "",
    "opening_hours": "",
    "osm_id": 2700467528,
    "osm_type": "node"
  },
  {
    "name": "Vertical World",
    "lat": 47.6610005,
    "lon": -122.386712,
    "city": "Seattle",
    "state": "",
    "website": "https://seattle.verticalworld.com/",
    "opening_hours": "Mo-Fr 06:00-22:00; Sa,Su 08:00-20:00",
    "osm_id": 2702039531,
    "osm_type": "node"
  },
  {
    "name": "The Cliffs at Harlem",
    "lat": 40.8096064,
    "lon": -73.9502428,
    "city": "",
    "state": "",
    "website": "https://harlem.thecliffsclimbing.com/",
    "opening_hours": "",
    "osm_id": 2767369945,
    "osm_type": "node"
  },
  {
    "name": "Aiguille Rock Climbing Center",
    "lat": 28.6913803,
    "lon": -81.3489543,
    "city": "",
    "state": "",
    "website": "",
    "opening_hours": "",
    "osm_id": 2853709364,
    "osm_type": "node"
  },
  {
    "name": "Crux Rock Room - Climbing & Fitness",
    "lat": 44.0566593,
    "lon": -123.0991484,
    "city": "",
    "state": "",
    "website": "",
    "opening_hours": "",
    "osm_id": 2878945012,
    "osm_type": "node"
  },
  {
    "name": "Project Climbing Centre",
    "lat": 49.0404314,
    "lon": -122.279395,
    "city": "",
    "state": "",
    "website": "http://projectclimbingcentre.com",
    "opening_hours": "",
    "osm_id": 2966011025,
    "osm_type": "node"
  },
  {
    "name": "Boston Bouldering Project",
    "lat": 42.381637,
    "lon": -71.1058777,
    "city": "",
    "state": "",
    "website": "https://www.bostonboulderingproject.com/",
    "opening_hours": "Sa-Su 08:00-22:00; Mo-Fr 06:00-23:00",
    "osm_id": 3067066508,
    "osm_type": "node"
  },
  {
    "name": "Planet Rock",
    "lat": 42.283134,
    "lon": -83.8089729,
    "city": "",
    "state": "",
    "website": "",
    "opening_hours": "",
    "osm_id": 3268760961,
    "osm_type": "node"
  },
  {
    "name": "The Ascent",
    "lat": 35.8337298,
    "lon": -86.3968703,
    "city": "",
    "state": "",
    "website": "",
    "opening_hours": "",
    "osm_id": 3678294570,
    "osm_type": "node"
  },
  {
    "name": "The Climbing Place",
    "lat": 35.0527085,
    "lon": -78.8848131,
    "city": "Fayetteville",
    "state": "",
    "website": "",
    "opening_hours": "",
    "osm_id": 3687709714,
    "osm_type": "node"
  },
  {
    "name": "Alpine Climbing Tower",
    "lat": 36.870424,
    "lon": -76.189863,
    "city": "",
    "state": "",
    "website": "",
    "opening_hours": "",
    "osm_id": 3811103454,
    "osm_type": "node"
  },
  {
    "name": "One Boulder Fitness",
    "lat": 40.0162257,
    "lon": -105.2791935,
    "city": "",
    "state": "",
    "website": "",
    "opening_hours": "",
    "osm_id": 3849412937,
    "osm_type": "node"
  },
  {
    "name": "Colorado Athletic Club Boulder",
    "lat": 40.0187428,
    "lon": -105.254918,
    "city": "Boulder",
    "state": "Colorado",
    "website": "",
    "opening_hours": "",
    "osm_id": 3868466567,
    "osm_type": "node"
  },
  {
    "name": "Ground Up Climbing Centre",
    "lat": 49.7240303,
    "lon": -123.1526283,
    "city": "Squamish",
    "state": "",
    "website": "https://www.climbgroundup.com/",
    "opening_hours": "Mo-Fr 12:00-23:00; Sa-Su 10:00-21:00",
    "osm_id": 3919801117,
    "osm_type": "node"
  },
  {
    "name": "Benchmark Climbing",
    "lat": 37.7888897,
    "lon": -122.4217728,
    "city": "San Francisco",
    "state": "California",
    "website": "https://www.benchmarkclimbing.com/",
    "opening_hours": "Mo-Fr 11:00-22:00; Sa,Su 10:00-19:00",
    "osm_id": 4004802465,
    "osm_type": "node"
  },
  {
    "name": "Vertical Hold",
    "lat": 33.1366331,
    "lon": -117.132921,
    "city": "San Marcos",
    "state": "California",
    "website": "https://www.verticalhold.com/",
    "opening_hours": "",
    "osm_id": 4047904538,
    "osm_type": "node"
  },
  {
    "name": "Dogpatch Boulders",
    "lat": 37.7566304,
    "lon": -122.3877723,
    "city": "San Francisco",
    "state": "",
    "website": "https://touchstoneclimbing.com/dogpatch-boulders/",
    "opening_hours": "Mo 07:00-22:00; Tu 11:00-23:00; We 07:00-22:00; Th 11:00-23:00; Fr 07:00-22:00; Sa-Su 10:00-19:00",
    "osm_id": 4057014702,
    "osm_type": "node"
  },
  {
    "name": "Climbing Boulder",
    "lat": 45.6878467,
    "lon": -111.0263647,
    "city": "",
    "state": "",
    "website": "",
    "opening_hours": "",
    "osm_id": 4107781188,
    "osm_type": "node"
  },
  {
    "name": "New Orleans Boulder Lounge",
    "lat": 29.9686937,
    "lon": -90.0526382,
    "city": "",
    "state": "",
    "website": "",
    "opening_hours": "",
    "osm_id": 4108850788,
    "osm_type": "node"
  },
  {
    "name": "Guelph Grotto Climbing Gym",
    "lat": 43.5519286,
    "lon": -80.224524,
    "city": "",
    "state": "",
    "website": "https://www.guelphgrotto.com/",
    "opening_hours": "Mo-Fr 06:00-23:00; Sa 08:00-21:00; Su 09:00-21:00",
    "osm_id": 4237761245,
    "osm_type": "node"
  },
  {
    "name": "Low COPE",
    "lat": 44.0574513,
    "lon": -91.2866688,
    "city": "",
    "state": "",
    "website": "",
    "opening_hours": "",
    "osm_id": 4251186824,
    "osm_type": "node"
  },
  {
    "name": "Climbing Wall",
    "lat": 45.830115,
    "lon": -74.2063162,
    "city": "",
    "state": "",
    "website": "",
    "opening_hours": "",
    "osm_id": 4318196930,
    "osm_type": "node"
  },
  {
    "name": "High Point Climbing and Fitness",
    "lat": 35.182381,
    "lon": -84.8738768,
    "city": "Cleveland",
    "state": "Tennessee",
    "website": "https://www.highpointclimbing.com/cleveland/cleveland-main",
    "opening_hours": "Mo-Fr 10:00-22:00; Sa-Su 10:00-20:00",
    "osm_id": 4332710393,
    "osm_type": "node"
  },
  {
    "name": "Riverview Walls",
    "lat": 43.8267871,
    "lon": -72.5375823,
    "city": "",
    "state": "",
    "website": "",
    "opening_hours": "",
    "osm_id": 4338791895,
    "osm_type": "node"
  },
  {
    "name": "Asana Climbing Gym",
    "lat": 43.650795,
    "lon": -116.2814057,
    "city": "Garden City",
    "state": "Idaho",
    "website": "",
    "opening_hours": "",
    "osm_id": 4365293496,
    "osm_type": "node"
  },
  {
    "name": "Paroi d'escalade Julien Labedan",
    "lat": 46.1693441,
    "lon": -74.4274495,
    "city": "",
    "state": "",
    "website": "http://www.clubmontagnardslaurentiens.com/",
    "opening_hours": "",
    "osm_id": 4367358396,
    "osm_type": "node"
  },
  {
    "name": "Climb Base5",
    "lat": 49.2276876,
    "lon": -122.849835,
    "city": "Coquitlam",
    "state": "",
    "website": "https://www.climbbase5.com/",
    "opening_hours": "",
    "osm_id": 4396703373,
    "osm_type": "node"
  },
  {
    "name": "The Hive",
    "lat": 49.3062966,
    "lon": -123.011812,
    "city": "North Vancouver",
    "state": "",
    "website": "http://www.hiveclimbing.com/northshore/",
    "opening_hours": "",
    "osm_id": 4401375026,
    "osm_type": "node"
  },
  {
    "name": "Pepin Gymnasium",
    "lat": 44.0045596,
    "lon": -73.1773789,
    "city": "",
    "state": "",
    "website": "",
    "opening_hours": "",
    "osm_id": 4415227162,
    "osm_type": "node"
  },
  {
    "name": "Mesa Rim Climbing & Fitness Center • Mission Valley",
    "lat": 32.7596315,
    "lon": -117.161227,
    "city": "",
    "state": "",
    "website": "https://mesarim.com/",
    "opening_hours": "Mo-Fr 06:00-23:00; Sa,Su 08:00-21:00",
    "osm_id": 4419896295,
    "osm_type": "node"
  },
  {
    "name": "Brooklyn Boulders Queensbridge",
    "lat": 40.7525859,
    "lon": -73.9401946,
    "city": "Long Island City",
    "state": "New York",
    "website": "https://brooklynboulders.com/queensbridge/",
    "opening_hours": "Mo-Fr 07:00-22:00; Sa-Su 09:00-20:00",
    "osm_id": 4446116266,
    "osm_type": "node"
  },
  {
    "name": "Cleveland Rock Gym",
    "lat": 41.5814479,
    "lon": -81.5328826,
    "city": "Euclid",
    "state": "Ohio",
    "website": "https://www.clevelandrockgym.com/",
    "opening_hours": "",
    "osm_id": 4577445439,
    "osm_type": "node"
  },
  {
    "name": "The Circuit Northeast",
    "lat": 45.5258593,
    "lon": -122.6480958,
    "city": "Portland",
    "state": "Oregon",
    "website": "https://www.thecircuitgym.com/northeast",
    "opening_hours": "Mo,We,Fr 10:00-23:00; Tu,Th 07:00-23:00; Sa,Su 09:00-23:00",
    "osm_id": 4591494889,
    "osm_type": "node"
  },
  {
    "name": "Diablo Rock, Touchstone Climbing",
    "lat": 37.964776,
    "lon": -122.0531266,
    "city": "",
    "state": "",
    "website": "",
    "opening_hours": "",
    "osm_id": 4722877089,
    "osm_type": "node"
  },
  {
    "name": "Sacramento Pipeworks, Touchstone Climbing",
    "lat": 38.5889889,
    "lon": -121.4812701,
    "city": "",
    "state": "",
    "website": "https://touchstoneclimbing.com/pipeworks/",
    "opening_hours": "",
    "osm_id": 4722881689,
    "osm_type": "node"
  },
  {
    "name": "Brooklyn Boulders",
    "lat": 39.7656819,
    "lon": -104.9773897,
    "city": "Denver",
    "state": "Colorado",
    "website": "",
    "opening_hours": "",
    "osm_id": 4769116426,
    "osm_type": "node"
  },
  {
    "name": "Bouldering Wall",
    "lat": 46.5780779,
    "lon": -90.8753222,
    "city": "",
    "state": "",
    "website": "",
    "opening_hours": "",
    "osm_id": 4812611413,
    "osm_type": "node"
  },
  {
    "name": "Bend Rock Gym",
    "lat": 44.0382124,
    "lon": -121.2903616,
    "city": "Bend",
    "state": "Oregon",
    "website": "https://www.bendrockgym.com/",
    "opening_hours": "",
    "osm_id": 4831946930,
    "osm_type": "node"
  },
  {
    "name": "MetroRock",
    "lat": 42.4076681,
    "lon": -71.0672409,
    "city": "Everett",
    "state": "Massachusetts",
    "website": "https://metrorock.com/everett-home",
    "opening_hours": "Mo-Fr 10:00-22:00; Sa-Su 09:00-20:00",
    "osm_id": 4881905925,
    "osm_type": "node"
  },
  {
    "name": "Santa Fe Climbing Center",
    "lat": 35.6534945,
    "lon": -105.992406,
    "city": "Santa Fe",
    "state": "New Mexico",
    "website": "",
    "opening_hours": "",
    "osm_id": 4964300122,
    "osm_type": "node"
  },
  {
    "name": "High Point Climbing Gym",
    "lat": 35.0540679,
    "lon": -85.310981,
    "city": "",
    "state": "",
    "website": "",
    "opening_hours": "",
    "osm_id": 5003235238,
    "osm_type": "node"
  },
  {
    "name": "Gravity Climbing Gym",
    "lat": 43.258255,
    "lon": -79.8938293,
    "city": "",
    "state": "",
    "website": "https://www.gravityclimbinggym.com/",
    "opening_hours": "Mo-Fr 16:00-22:30; Sa-Su 12:00-19:00",
    "osm_id": 5008028921,
    "osm_type": "node"
  },
  {
    "name": "Rock Spot Climbing",
    "lat": 42.336498,
    "lon": -71.0564578,
    "city": "South Boston",
    "state": "Massachusetts",
    "website": "https://southboston.rockspotclimbing.com/",
    "opening_hours": "Mo-Su 10:00-24:00",
    "osm_id": 5031189730,
    "osm_type": "node"
  },
  {
    "name": "The Gravity Vault Voorhees",
    "lat": 39.8533135,
    "lon": -75.0131621,
    "city": "Voorhees",
    "state": "New Jersey",
    "website": "https://gravityvault.com/locations/voorhees-nj",
    "opening_hours": "",
    "osm_id": 5065657423,
    "osm_type": "node"
  },
  {
    "name": "The Peak of Fremont",
    "lat": 37.5104988,
    "lon": -121.9509636,
    "city": "",
    "state": "",
    "website": "https://thepeakoffremont.com/",
    "opening_hours": "Mo-Fr 10:00-22:00; Sa,Su 10:00-18:00",
    "osm_id": 5099667128,
    "osm_type": "node"
  },
  {
    "name": "LA Boulders",
    "lat": 34.0389702,
    "lon": -118.2343821,
    "city": "Los Angeles",
    "state": "California",
    "website": "https://touchstoneclimbing.com/la-boulders/",
    "opening_hours": "",
    "osm_id": 5127650278,
    "osm_type": "node"
  },
  {
    "name": "Nathan's Wall",
    "lat": 48.9877076,
    "lon": -122.0705052,
    "city": "",
    "state": "",
    "website": "",
    "opening_hours": "",
    "osm_id": 5140390269,
    "osm_type": "node"
  },
  {
    "name": "Gravity Vault Climbing Gym",
    "lat": 40.6357074,
    "lon": -75.4817961,
    "city": "",
    "state": "",
    "website": "",
    "opening_hours": "",
    "osm_id": 5160211552,
    "osm_type": "node"
  },
  {
    "name": "MMA Rapelling Tower",
    "lat": 39.1711098,
    "lon": -91.8642364,
    "city": "",
    "state": "",
    "website": "",
    "opening_hours": "",
    "osm_id": 5272263543,
    "osm_type": "node"
  },
  {
    "name": "BoulderHouse Climbing",
    "lat": 48.4403557,
    "lon": -123.3657153,
    "city": "",
    "state": "",
    "website": "https://boulderhouse.ca",
    "opening_hours": "",
    "osm_id": 5300929121,
    "osm_type": "node"
  },
  {
    "name": "Beta Crux",
    "lat": 48.4259763,
    "lon": -71.0689455,
    "city": "",
    "state": "",
    "website": "https://betacrux.ca/",
    "opening_hours": "Mo-We 16:00-22:00; Th, Fr 14:00-22:00; Sa, Su 12:00-20:00",
    "osm_id": 5378743406,
    "osm_type": "node"
  },
  {
    "name": "Hangar 18 Climbing Gym",
    "lat": 33.9461767,
    "lon": -117.4461529,
    "city": "Riverside",
    "state": "California",
    "website": "https://www.climbhangar18.com/location/riverside/",
    "opening_hours": "Mo-Th 10:00-22:00; Fr 10:00-21:00; Sa-Su 10:00-20:00",
    "osm_id": 5413591527,
    "osm_type": "node"
  },
  {
    "name": "Basecamp Climbing",
    "lat": 43.6638554,
    "lon": -79.416486,
    "city": "Toronto",
    "state": "",
    "website": "https://basecampclimbing.ca/bloor/",
    "opening_hours": "",
    "osm_id": 5426869830,
    "osm_type": "node"
  },
  {
    "name": "Rogue Rock Gym",
    "lat": 42.2956238,
    "lon": -122.8408246,
    "city": "",
    "state": "",
    "website": "",
    "opening_hours": "",
    "osm_id": 5455291101,
    "osm_type": "node"
  },
  {
    "name": "Junction Climbing Centre",
    "lat": 42.9984133,
    "lon": -81.2175795,
    "city": "London",
    "state": "",
    "website": "https://www.junctionclimbing.com/",
    "opening_hours": "Mo-Fr 12:00-22:30; Sa 10:00-18:00; Su 10:00-18:00",
    "osm_id": 5516508224,
    "osm_type": "node"
  },
  {
    "name": "VITAL Climbing Gym",
    "lat": 40.7867888,
    "lon": -73.950455,
    "city": "",
    "state": "",
    "website": "https://www.vitalclimbinggym.com/upper-east",
    "opening_hours": "Mo-Fr 08:00-23:00; Sa, Su 10:00-20:00",
    "osm_id": 5607297102,
    "osm_type": "node"
  },
  {
    "name": "MetroRock Brooklyn",
    "lat": 40.7080614,
    "lon": -73.9203394,
    "city": "Brooklyn",
    "state": "New York",
    "website": "https://www.metrorock.com/brooklyn",
    "opening_hours": "Mo-Fr 07:00-24:00; Sa-Su 09:00-22:00; Nov Th[4] off; Dec 25 off",
    "osm_id": 5633569361,
    "osm_type": "node"
  },
  {
    "name": "Bloc Shop Chabanel",
    "lat": 45.5319283,
    "lon": -73.6577832,
    "city": "Montréal",
    "state": "",
    "website": "https://blocshop.com/",
    "opening_hours": "Mo-Fr 11:00-23:00, Sa-Su 9:00-21:00",
    "osm_id": 5648642656,
    "osm_type": "node"
  },
  {
    "name": "Climb Tacoma",
    "lat": 47.2399712,
    "lon": -122.4344087,
    "city": "",
    "state": "",
    "website": "",
    "opening_hours": "",
    "osm_id": 5653311621,
    "osm_type": "node"
  },
  {
    "name": "Minneapolis Bouldering Project",
    "lat": 44.9935108,
    "lon": -93.2775269,
    "city": "Minneapolis",
    "state": "Minnesota",
    "website": "https://minneapolisboulderingproject.com/",
    "opening_hours": "Mo-Fr 06:00-23:00; Sa,Su 07:00-22:00",
    "osm_id": 5752714903,
    "osm_type": "node"
  },
  {
    "name": "The Wall",
    "lat": 43.5880782,
    "lon": -110.8278214,
    "city": "",
    "state": "",
    "website": "",
    "opening_hours": "",
    "osm_id": 5775816700,
    "osm_type": "node"
  },
  {
    "name": "Fitrocks",
    "lat": 45.309397,
    "lon": -66.0312721,
    "city": "",
    "state": "",
    "website": "",
    "opening_hours": "",
    "osm_id": 5792968689,
    "osm_type": "node"
  },
  {
    "name": "Mountaineers Climbing Wall",
    "lat": 47.6849484,
    "lon": -122.263788,
    "city": "",
    "state": "",
    "website": "",
    "opening_hours": "",
    "osm_id": 5831573779,
    "osm_type": "node"
  },
  {
    "name": "Altitude Gym",
    "lat": 45.2979843,
    "lon": -75.9116631,
    "city": "",
    "state": "",
    "website": "https://altitudegym.ca/en/kanata/",
    "opening_hours": "Mo-Fr 10:00-22:00; Sa-Su 10:00-10:00",
    "osm_id": 5838396285,
    "osm_type": "node"
  },
  {
    "name": "Blocshop",
    "lat": 45.5363646,
    "lon": -73.5433707,
    "city": "",
    "state": "",
    "website": "",
    "opening_hours": "",
    "osm_id": 5891678485,
    "osm_type": "node"
  },
  {
    "name": "Sportrock",
    "lat": 38.801127,
    "lon": -77.126143,
    "city": "Alexandria",
    "state": "",
    "website": "https://sportrock.com/",
    "opening_hours": "Mo-Fr 06:00-23:00; Sa 10:00-21:00; Su 11:00-21:00",
    "osm_id": 5910435788,
    "osm_type": "node"
  },
  {
    "name": "Low COPE",
    "lat": 45.1350755,
    "lon": -88.686122,
    "city": "",
    "state": "",
    "website": "",
    "opening_hours": "",
    "osm_id": 5911851788,
    "osm_type": "node"
  },
  {
    "name": "Centre d'escalade Vertical",
    "lat": 45.4366408,
    "lon": -73.6077925,
    "city": "Montréal",
    "state": "",
    "website": "",
    "opening_hours": "",
    "osm_id": 5984169910,
    "osm_type": "node"
  },
  {
    "name": "Monolithe Escalade - Voie",
    "lat": 45.5685083,
    "lon": -73.5367101,
    "city": "Montréal",
    "state": "",
    "website": "http://www.horizonroc.com/",
    "opening_hours": "Mo-Su 08:00-22:00",
    "osm_id": 5984172959,
    "osm_type": "node"
  },
  {
    "name": "Beta Bloc",
    "lat": 45.4790272,
    "lon": -73.7828972,
    "city": "",
    "state": "",
    "website": "https://www.betabloc.ca/",
    "opening_hours": "",
    "osm_id": 5984179068,
    "osm_type": "node"
  },
  {
    "name": "Escalade Clip 'n Climb Laval",
    "lat": 45.5606783,
    "lon": -73.7423349,
    "city": "Laval",
    "state": "",
    "website": "https://clipnclimblaval.ca/",
    "opening_hours": "",
    "osm_id": 6034827696,
    "osm_type": "node"
  },
  {
    "name": "Action Directe",
    "lat": 45.6256922,
    "lon": -73.8299835,
    "city": "Boisbriand",
    "state": "",
    "website": "http://www.amusementactiondirecte.com/",
    "opening_hours": "",
    "osm_id": 6034838034,
    "osm_type": "node"
  },
  {
    "name": "Club Aventure Plein Air St-Hyacinthe",
    "lat": 45.6177126,
    "lon": -72.9617607,
    "city": "Saint-Hyacinthe",
    "state": "",
    "website": "https://sites.google.com/site/clubaventurepleinairsthya/",
    "opening_hours": "",
    "osm_id": 6034848889,
    "osm_type": "node"
  },
  {
    "name": "Centre d'escalade Backbone",
    "lat": 45.3079264,
    "lon": -72.7017844,
    "city": "Bromont",
    "state": "",
    "website": "http://backboneboulder.com/",
    "opening_hours": "",
    "osm_id": 6034897434,
    "osm_type": "node"
  },
  {
    "name": "O'Bloc Escalade",
    "lat": 45.4260857,
    "lon": -72.7159355,
    "city": "Granby",
    "state": "",
    "website": "http://www.oblocescalade.com/",
    "opening_hours": "",
    "osm_id": 6034905798,
    "osm_type": "node"
  },
  {
    "name": "Wilkes-Barre Indoor Rock Climbing",
    "lat": 41.2435957,
    "lon": -75.8855163,
    "city": "",
    "state": "",
    "website": "",
    "opening_hours": "",
    "osm_id": 6103589414,
    "osm_type": "node"
  },
  {
    "name": "The Boulder Field",
    "lat": 38.5388423,
    "lon": -121.394636,
    "city": "Sacramento",
    "state": "California",
    "website": "https://www.theboulderfield.com/",
    "opening_hours": "",
    "osm_id": 6127338385,
    "osm_type": "node"
  },
  {
    "name": "The Rock Boxx Climbing Gym",
    "lat": 44.8995945,
    "lon": -123.0058472,
    "city": "",
    "state": "",
    "website": "",
    "opening_hours": "",
    "osm_id": 6136264985,
    "osm_type": "node"
  },
  {
    "name": "The Circuit Bouldering Gym",
    "lat": 45.4029351,
    "lon": -122.752613,
    "city": "",
    "state": "",
    "website": "",
    "opening_hours": "",
    "osm_id": 6139691685,
    "osm_type": "node"
  },
  {
    "name": "Boulderz Climbing Centre",
    "lat": 43.6670186,
    "lon": -79.4493406,
    "city": "Toronto",
    "state": "",
    "website": "https://www.boulderzclimbing.com/",
    "opening_hours": "",
    "osm_id": 6268050078,
    "osm_type": "node"
  },
  {
    "name": "Vertical Endeavors - Twin Cities Bouldering",
    "lat": 44.9604979,
    "lon": -93.2068105,
    "city": "Saint Paul",
    "state": "Minnesota",
    "website": "https://www.verticalendeavors.com",
    "opening_hours": "Mo-Fr 06:00-22:00; Sa 08:00-20:00; Su 08:00-18:00",
    "osm_id": 6329878282,
    "osm_type": "node"
  },
  {
    "name": "Boulderz",
    "lat": 43.6186678,
    "lon": -79.550362,
    "city": "Etobicoke",
    "state": "",
    "website": "",
    "opening_hours": "Mo-Fr 10:00-23:00, Sa-Su 09:00-21:00",
    "osm_id": 6372736877,
    "osm_type": "node"
  },
  {
    "name": "Altitude Gym",
    "lat": 45.4469588,
    "lon": -75.7369926,
    "city": "",
    "state": "",
    "website": "http://altitudegym.ca",
    "opening_hours": "",
    "osm_id": 6373100184,
    "osm_type": "node"
  },
  {
    "name": "Movement Climbing, Yoga, & Fitness",
    "lat": 33.2158494,
    "lon": -97.1347886,
    "city": "Denton",
    "state": "Texas",
    "website": "https://movementgyms.com/denton/",
    "opening_hours": "Mo-Fr 09:00-22:00; Sa 09:00-20:00; Su 09:00-18:00",
    "osm_id": 6424387019,
    "osm_type": "node"
  },
  {
    "name": "Movement Englewood",
    "lat": 39.6501209,
    "lon": -105.0007344,
    "city": "Englewood",
    "state": "Colorado",
    "website": "https://www.earthtreksclimbing.com/englewood/",
    "opening_hours": "",
    "osm_id": 6449679485,
    "osm_type": "node"
  },
  {
    "name": "Délire Escalade Ste Foy",
    "lat": 46.8006647,
    "lon": -71.3257596,
    "city": "",
    "state": "",
    "website": "https://www.delirescalade.com",
    "opening_hours": "",
    "osm_id": 6539592486,
    "osm_type": "node"
  },
  {
    "name": "Climbing Wall",
    "lat": 48.6694191,
    "lon": -123.1585465,
    "city": "",
    "state": "",
    "website": "",
    "opening_hours": "",
    "osm_id": 6551856463,
    "osm_type": "node"
  },
  {
    "name": "Ropes Course",
    "lat": 48.6670044,
    "lon": -123.1509764,
    "city": "",
    "state": "",
    "website": "",
    "opening_hours": "",
    "osm_id": 6551860451,
    "osm_type": "node"
  },
  {
    "name": "Ultimate Climbing Experience",
    "lat": 42.4110547,
    "lon": -90.1236277,
    "city": "",
    "state": "",
    "website": "",
    "opening_hours": "",
    "osm_id": 6588783382,
    "osm_type": "node"
  },
  {
    "name": "Mur d'escalade",
    "lat": 45.7949839,
    "lon": -76.106159,
    "city": "",
    "state": "",
    "website": "",
    "opening_hours": "",
    "osm_id": 6613349513,
    "osm_type": "node"
  },
  {
    "name": "Climing Tower / Zip Line",
    "lat": 42.2330889,
    "lon": -94.0134835,
    "city": "",
    "state": "",
    "website": "",
    "opening_hours": "",
    "osm_id": 6698138238,
    "osm_type": "node"
  },
  {
    "name": "Warehouse Climbing Co.",
    "lat": 41.5863272,
    "lon": -85.8254409,
    "city": "",
    "state": "Indiana",
    "website": "https://www.warehouseclimbingco.com",
    "opening_hours": "Mo-Fr 12:00-14:00,16:00-21:00; Tu off; Sa 10:00-18:00; Su 13:00-18:00",
    "osm_id": 6777800703,
    "osm_type": "node"
  },
  {
    "name": "Movement RiNo Climbing + Fitness",
    "lat": 39.7656693,
    "lon": -104.9784131,
    "city": "Denver",
    "state": "Colorado",
    "website": "https://movementgyms.com/rino/",
    "opening_hours": "Mo-Fr 06:00-23:00, Sa 08:00-20:00, Su 08:00-18:00",
    "osm_id": 6788195854,
    "osm_type": "node"
  },
  {
    "name": "Jake's Rock",
    "lat": 42.9389804,
    "lon": -88.0597542,
    "city": "",
    "state": "",
    "website": "",
    "opening_hours": "",
    "osm_id": 6839090988,
    "osm_type": "node"
  },
  {
    "name": "Vertical Endeavors",
    "lat": 44.9561498,
    "lon": -93.2784887,
    "city": "Minneapolis",
    "state": "Minnesota",
    "website": "http://verticalendeavors.com/minneapolis/",
    "opening_hours": "Mo-Fr 10:00-23:00; Sa 10:00-22:00; Su 10:00-18:00",
    "osm_id": 6865243273,
    "osm_type": "node"
  },
  {
    "name": "Boulders Climbing Gym",
    "lat": 43.0725795,
    "lon": -89.3833631,
    "city": "Madison",
    "state": "Wisconsin",
    "website": "https://www.bouldersgym.com",
    "opening_hours": "",
    "osm_id": 6865260269,
    "osm_type": "node"
  },
  {
    "name": "TSI Climbing Tower",
    "lat": 28.101737,
    "lon": -82.5082303,
    "city": "",
    "state": "",
    "website": "",
    "opening_hours": "",
    "osm_id": 6868122743,
    "osm_type": "node"
  },
  {
    "name": "Tomo Bouldering Club",
    "lat": 45.5324,
    "lon": -122.6850244,
    "city": "Portland",
    "state": "",
    "website": "https://www.tomoboulderingclub.com/",
    "opening_hours": "Mo-Su 10:00-23:00",
    "osm_id": 6895097186,
    "osm_type": "node"
  },
  {
    "name": "Climb Kalamazoo",
    "lat": 42.2909833,
    "lon": -85.5833508,
    "city": "",
    "state": "",
    "website": "",
    "opening_hours": "",
    "osm_id": 6975261258,
    "osm_type": "node"
  },
  {
    "name": "Central Rock Rochester",
    "lat": 43.1498971,
    "lon": -77.5944798,
    "city": "Rochester",
    "state": "New York",
    "website": "",
    "opening_hours": "",
    "osm_id": 7001559304,
    "osm_type": "node"
  },
  {
    "name": "Focus Climbing Center",
    "lat": 33.4089755,
    "lon": -111.8774171,
    "city": "Mesa",
    "state": "Arizona",
    "website": "https://focusclimbingcenter.com",
    "opening_hours": "Mo-Fr 10:00-22:00; Sa-Su 10:00-19:00",
    "osm_id": 7004610134,
    "osm_type": "node"
  },
  {
    "name": "North Boulder Pilates",
    "lat": 40.0295589,
    "lon": -105.2460649,
    "city": "Boulder",
    "state": "Colorado",
    "website": "",
    "opening_hours": "",
    "osm_id": 7050169764,
    "osm_type": "node"
  },
  {
    "name": "The District",
    "lat": 29.4490785,
    "lon": -98.4742104,
    "city": "San Antonio",
    "state": "Texas",
    "website": "https://www.thedistrictsa.com/",
    "opening_hours": "Mo-Su 10:00-22:00, 00:00-11:59",
    "osm_id": 7073073961,
    "osm_type": "node"
  },
  {
    "name": "Cliffhanger",
    "lat": 39.3715223,
    "lon": -84.3870365,
    "city": "",
    "state": "",
    "website": "https://www.funattheweb.com/climbing-wall-cincinnati",
    "opening_hours": "",
    "osm_id": 7113769184,
    "osm_type": "node"
  },
  {
    "name": "Rockwall",
    "lat": 39.2931176,
    "lon": -76.5086526,
    "city": "",
    "state": "",
    "website": "",
    "opening_hours": "",
    "osm_id": 7131422160,
    "osm_type": "node"
  },
  {
    "name": "Café Bloc",
    "lat": 45.509779,
    "lon": -73.563005,
    "city": "Boul St-Laurent",
    "state": "",
    "website": "https://www.cafebloc.com/",
    "opening_hours": "Mo-Fr 07:00-23:00; Sa-Su 09:00-21:00",
    "osm_id": 7209456285,
    "osm_type": "node"
  },
  {
    "name": "The Ledge",
    "lat": 42.2236612,
    "lon": -121.7799738,
    "city": "",
    "state": "",
    "website": "https://yetiledge.wordpress.com/",
    "opening_hours": "Mo-Th 10:00-19:00; Fr 10:00-18:00; Sa 09:00-17:00",
    "osm_id": 7253699161,
    "osm_type": "node"
  },
  {
    "name": "Rope Climbing Tower",
    "lat": 38.4517783,
    "lon": -122.668997,
    "city": "",
    "state": "",
    "website": "",
    "opening_hours": "",
    "osm_id": 7264982512,
    "osm_type": "node"
  },
  {
    "name": "Rose Bloc",
    "lat": 45.484677,
    "lon": -73.4620437,
    "city": "Greenfield Park",
    "state": "",
    "website": "https://www.rosebloc.com/",
    "opening_hours": "",
    "osm_id": 7347327693,
    "osm_type": "node"
  },
  {
    "name": "Diablo Canyon",
    "lat": 35.8057897,
    "lon": -106.142231,
    "city": "",
    "state": "",
    "website": "",
    "opening_hours": "",
    "osm_id": 7401111050,
    "osm_type": "node"
  },
  {
    "name": "Canyon Escalade",
    "lat": 45.4081178,
    "lon": -73.4697284,
    "city": "",
    "state": "",
    "website": "",
    "opening_hours": "",
    "osm_id": 7414947295,
    "osm_type": "node"
  },
  {
    "name": "Kir Tipus",
    "lat": 43.180598,
    "lon": -71.1678001,
    "city": "",
    "state": "",
    "website": "",
    "opening_hours": "",
    "osm_id": 7425922532,
    "osm_type": "node"
  },
  {
    "name": "Cirque Climbing",
    "lat": 47.0720325,
    "lon": -122.768049,
    "city": "Lacey",
    "state": "Washington",
    "website": "https://www.cirqueclimbing.com/",
    "opening_hours": "Mo-Fr 11:00-21:30; Sa 09:00-21:30; Su 09:00-18:00",
    "osm_id": 7474819212,
    "osm_type": "node"
  },
  {
    "name": "Edgeworks Climbing",
    "lat": 47.2572151,
    "lon": -122.519502,
    "city": "",
    "state": "",
    "website": "",
    "opening_hours": "",
    "osm_id": 7504178285,
    "osm_type": "node"
  },
  {
    "name": "Kicks Tae Kwon Do",
    "lat": 42.2825451,
    "lon": -83.383252,
    "city": "Wayne",
    "state": "Michigan",
    "website": "",
    "opening_hours": "",
    "osm_id": 7599050957,
    "osm_type": "node"
  },
  {
    "name": "Climbing City",
    "lat": 39.4051795,
    "lon": -87.405834,
    "city": "",
    "state": "",
    "website": "",
    "opening_hours": "",
    "osm_id": 7674901035,
    "osm_type": "node"
  },
  {
    "name": "Freestone Climbing Center",
    "lat": 46.8834045,
    "lon": -114.0086382,
    "city": "",
    "state": "",
    "website": "",
    "opening_hours": "",
    "osm_id": 7706366333,
    "osm_type": "node"
  },
  {
    "name": "Gem City Rocks",
    "lat": 42.1201397,
    "lon": -80.0915208,
    "city": "Erie",
    "state": "Pennsylvania",
    "website": "",
    "opening_hours": "",
    "osm_id": 7717755605,
    "osm_type": "node"
  },
  {
    "name": "Four Arrows Ropes Course",
    "lat": 41.8085083,
    "lon": -72.2922512,
    "city": "Storrs",
    "state": "Connecticut",
    "website": "https://fourarrows.uconn.edu/",
    "opening_hours": "",
    "osm_id": 7727840178,
    "osm_type": "node"
  },
  {
    "name": "Pared para escalar",
    "lat": 25.231916,
    "lon": -100.4341763,
    "city": "",
    "state": "",
    "website": "",
    "opening_hours": "",
    "osm_id": 7729395504,
    "osm_type": "node"
  },
  {
    "name": "Turkey Monster",
    "lat": 44.4324334,
    "lon": -122.2961059,
    "city": "",
    "state": "",
    "website": "",
    "opening_hours": "",
    "osm_id": 7741647489,
    "osm_type": "node"
  },
  {
    "name": "Rabbit Ears",
    "lat": 44.4289053,
    "lon": -122.3012263,
    "city": "",
    "state": "",
    "website": "",
    "opening_hours": "",
    "osm_id": 7741647576,
    "osm_type": "node"
  },
  {
    "name": "Rooster Rock",
    "lat": 44.4171626,
    "lon": -122.3043859,
    "city": "",
    "state": "",
    "website": "",
    "opening_hours": "",
    "osm_id": 7741647586,
    "osm_type": "node"
  },
  {
    "name": "L'Escarpé",
    "lat": 45.8749321,
    "lon": -72.4822925,
    "city": "Drummondville",
    "state": "",
    "website": "",
    "opening_hours": "",
    "osm_id": 7762597444,
    "osm_type": "node"
  },
  {
    "name": "Bald Hill",
    "lat": 44.7623826,
    "lon": -71.9848556,
    "city": "",
    "state": "",
    "website": "",
    "opening_hours": "",
    "osm_id": 7833620959,
    "osm_type": "node"
  },
  {
    "name": "Rockmill",
    "lat": 41.0755267,
    "lon": -81.4977957,
    "city": "",
    "state": "",
    "website": "",
    "opening_hours": "",
    "osm_id": 7844979648,
    "osm_type": "node"
  },
  {
    "name": "Steffen Bouldering Wall",
    "lat": 43.6932953,
    "lon": -88.1659832,
    "city": "",
    "state": "",
    "website": "",
    "opening_hours": "",
    "osm_id": 7900383300,
    "osm_type": "node"
  },
  {
    "name": "Kaiut Yoga Boulder",
    "lat": 39.9986124,
    "lon": -105.2349519,
    "city": "",
    "state": "",
    "website": "https://www.kaiutyogaboulder.com/",
    "opening_hours": "",
    "osm_id": 7962402500,
    "osm_type": "node"
  },
  {
    "name": "Climbing Wall",
    "lat": 39.1461338,
    "lon": -86.535828,
    "city": "",
    "state": "",
    "website": "",
    "opening_hours": "",
    "osm_id": 8088964079,
    "osm_type": "node"
  },
  {
    "name": "Bouldering Wall",
    "lat": 42.9632907,
    "lon": -83.2572353,
    "city": "",
    "state": "",
    "website": "",
    "opening_hours": "",
    "osm_id": 8117297645,
    "osm_type": "node"
  },
  {
    "name": "Method Climbing",
    "lat": 40.7430122,
    "lon": -74.1686127,
    "city": "Newark",
    "state": "New Jersey",
    "website": "https://methodclimb.com/",
    "opening_hours": "Mo-Fr 08:00-23:00; Sa-Su 09:00-21:00",
    "osm_id": 8205009342,
    "osm_type": "node"
  },
  {
    "name": "Climb Base5",
    "lat": 49.3172443,
    "lon": -123.1146315,
    "city": "",
    "state": "",
    "website": "https://www.climbbase5.com",
    "opening_hours": "",
    "osm_id": 8255866832,
    "osm_type": "node"
  },
  {
    "name": "Balmoral Rope Swing",
    "lat": 38.7767601,
    "lon": -77.4219214,
    "city": "",
    "state": "",
    "website": "",
    "opening_hours": "",
    "osm_id": 8258975748,
    "osm_type": "node"
  },
  {
    "name": "Hook Centre d'escalade Inc.",
    "lat": 45.5778284,
    "lon": -73.3371617,
    "city": "Sainte-Julie",
    "state": "",
    "website": "",
    "opening_hours": "",
    "osm_id": 8476895749,
    "osm_type": "node"
  },
  {
    "name": "Bloc Haven",
    "lat": 34.8358416,
    "lon": -82.4291823,
    "city": "",
    "state": "",
    "website": "https://www.therockoon.com/",
    "opening_hours": "",
    "osm_id": 8482644094,
    "osm_type": "node"
  },
  {
    "name": "Central Rock Gym",
    "lat": 40.7725218,
    "lon": -73.9902928,
    "city": "New York",
    "state": "New York",
    "website": "https://centralrockgym.com/manhattan/",
    "opening_hours": "",
    "osm_id": 8522345405,
    "osm_type": "node"
  },
  {
    "name": "Tango Tower",
    "lat": 30.4927554,
    "lon": -97.8080265,
    "city": "",
    "state": "",
    "website": "",
    "opening_hours": "",
    "osm_id": 8539675324,
    "osm_type": "node"
  },
  {
    "name": "High Point Climbing and Fitness",
    "lat": 34.7378706,
    "lon": -86.6669368,
    "city": "",
    "state": "",
    "website": "",
    "opening_hours": "",
    "osm_id": 8674520898,
    "osm_type": "node"
  },
  {
    "name": "Climb Murfreesboro",
    "lat": 35.8660697,
    "lon": -86.386989,
    "city": "",
    "state": "",
    "website": "",
    "opening_hours": "",
    "osm_id": 8677809892,
    "osm_type": "node"
  },
  {
    "name": "Hangar Climbing Gym",
    "lat": 33.8051538,
    "lon": -118.1616391,
    "city": "",
    "state": "",
    "website": "",
    "opening_hours": "",
    "osm_id": 8744600141,
    "osm_type": "node"
  },
  {
    "name": "Cayuga Climbs",
    "lat": 42.4724668,
    "lon": -76.4086152,
    "city": "Ithaca",
    "state": "New York",
    "website": "https://www.cayugaclimbs.com/",
    "opening_hours": "Mo-Fr 12:00-22:00; Su-Sa 10:00-18:00",
    "osm_id": 8796623756,
    "osm_type": "node"
  },
  {
    "name": "The Hi-Line Climbing Center",
    "lat": 47.5039341,
    "lon": -111.296574,
    "city": "",
    "state": "",
    "website": "",
    "opening_hours": "",
    "osm_id": 8912036370,
    "osm_type": "node"
  },
  {
    "name": "Chibekana (Rez-de-Chaussée)",
    "lat": 47.3388154,
    "lon": -79.4315121,
    "city": "",
    "state": "",
    "website": "",
    "opening_hours": "",
    "osm_id": 8941526088,
    "osm_type": "node"
  },
  {
    "name": "Chibekana (3e Cap)",
    "lat": 47.3380342,
    "lon": -79.4298378,
    "city": "",
    "state": "",
    "website": "",
    "opening_hours": "",
    "osm_id": 8941526093,
    "osm_type": "node"
  },
  {
    "name": "Blue Swan Boulders",
    "lat": 28.5463461,
    "lon": -81.3831679,
    "city": "Orlando",
    "state": "Florida",
    "website": "",
    "opening_hours": "",
    "osm_id": 8960679281,
    "osm_type": "node"
  },
  {
    "name": "The BLOC climbing + fitness",
    "lat": 32.2600889,
    "lon": -110.8005906,
    "city": "Tucson",
    "state": "Arizona",
    "website": "https://rocksandropes.com/",
    "opening_hours": "",
    "osm_id": 8972702551,
    "osm_type": "node"
  },
  {
    "name": "True North Climbing",
    "lat": 43.7454121,
    "lon": -79.474356,
    "city": "Toronto",
    "state": "",
    "website": "https://www.truenorthclimbing.com/",
    "opening_hours": "",
    "osm_id": 9027371632,
    "osm_type": "node"
  },
  {
    "name": "D-Vert",
    "lat": 45.2760431,
    "lon": -72.178037,
    "city": "Magog",
    "state": "",
    "website": "",
    "opening_hours": "",
    "osm_id": 9038328208,
    "osm_type": "node"
  },
  {
    "name": "The Rope Adventure Park at Luray Caverns",
    "lat": 38.6652706,
    "lon": -78.4841578,
    "city": "",
    "state": "",
    "website": "",
    "opening_hours": "",
    "osm_id": 9072339853,
    "osm_type": "node"
  },
  {
    "name": "Übergrippen Indoor Climbing Crag - Denver",
    "lat": 39.7485305,
    "lon": -104.8876011,
    "city": "Denver",
    "state": "",
    "website": "https://ugclimbing.com",
    "opening_hours": "",
    "osm_id": 9087771117,
    "osm_type": "node"
  },
  {
    "name": "Mountain Strong Denver Climbing and CrossFit",
    "lat": 39.8040317,
    "lon": -104.966254,
    "city": "",
    "state": "",
    "website": "https://mountainstrongdenver.com/",
    "opening_hours": "",
    "osm_id": 9087788117,
    "osm_type": "node"
  },
  {
    "name": "Training Center",
    "lat": 37.8515721,
    "lon": -122.292605,
    "city": "Berkeley",
    "state": "California",
    "website": "https://touchstoneclimbing.com/team-training-center/",
    "opening_hours": "",
    "osm_id": 9089896749,
    "osm_type": "node"
  },
  {
    "name": "Latitude Climbing and Fitness",
    "lat": 36.8451857,
    "lon": -76.13461,
    "city": "Virginia Beach",
    "state": "Virginia",
    "website": "",
    "opening_hours": "Mo-Fr 08:00-22:00; Sa 09:00-22:00; Su 09:00-20:00",
    "osm_id": 9101685334,
    "osm_type": "node"
  },
  {
    "name": "Pinnacle Indoor Climbing",
    "lat": 43.8983564,
    "lon": -78.6620235,
    "city": "Bowmanville",
    "state": "",
    "website": "https://pinnacleindoorclimbing.com/",
    "opening_hours": "",
    "osm_id": 9114979308,
    "osm_type": "node"
  },
  {
    "name": "MetroRock Littleton",
    "lat": 42.5525982,
    "lon": -71.4725634,
    "city": "Littleton",
    "state": "Massachusetts",
    "website": "",
    "opening_hours": "",
    "osm_id": 9124654627,
    "osm_type": "node"
  },
  {
    "name": "Chambers Purely Boulders",
    "lat": 39.9931821,
    "lon": -83.0388853,
    "city": "Columbus",
    "state": "Ohio",
    "website": "",
    "opening_hours": "",
    "osm_id": 9156596215,
    "osm_type": "node"
  },
  {
    "name": "The Front Climbing Club",
    "lat": 40.6818226,
    "lon": -111.8915557,
    "city": "",
    "state": "",
    "website": "https://thefrontclimbingclub.com/",
    "opening_hours": "Mo-Fr 05:30-23:00; Sa-Su 08:00-22:00",
    "osm_id": 9181476328,
    "osm_type": "node"
  },
  {
    "name": "SFU Climbing Wall",
    "lat": 49.2796034,
    "lon": -122.9235028,
    "city": "",
    "state": "",
    "website": "https://sfurec.ca/sports/2021/4/27/instructional-programs.aspx",
    "opening_hours": "",
    "osm_id": 9229279169,
    "osm_type": "node"
  },
  {
    "name": "Rock & Rope Climbing Centre",
    "lat": 44.2950496,
    "lon": -78.3244928,
    "city": "",
    "state": "",
    "website": "",
    "opening_hours": "",
    "osm_id": 9284055838,
    "osm_type": "node"
  },
  {
    "name": "WIP Climbing",
    "lat": 49.6682875,
    "lon": -124.981978,
    "city": "",
    "state": "",
    "website": "https://wipclimbing.com/",
    "opening_hours": "Mo-Sa 10:00-22:00; Su 10:00-20:00",
    "osm_id": 9288516818,
    "osm_type": "node"
  },
  {
    "name": "DC Bouldering Project",
    "lat": 38.9115974,
    "lon": -77.0043223,
    "city": "Washington",
    "state": "Washington Dc",
    "website": "https://www.dcboulderingproject.com/",
    "opening_hours": "Mo-Fr 07:00-22:00; Sa-Su 08:00-20:00",
    "osm_id": 9325110517,
    "osm_type": "node"
  },
  {
    "name": "Vertical Hold",
    "lat": 32.9431105,
    "lon": -117.043415,
    "city": "Poway",
    "state": "California",
    "website": "https://www.verticalhold.com/",
    "opening_hours": "Mo-Fr 09:00-22:00; Sa-Su 09:00-21:00",
    "osm_id": 9333156270,
    "osm_type": "node"
  },
  {
    "name": "Le Mouv' Espace Bloc",
    "lat": 45.5651915,
    "lon": -73.5962836,
    "city": "Montréal",
    "state": "",
    "website": "https://www.lemouv.ca/",
    "opening_hours": "",
    "osm_id": 9354573855,
    "osm_type": "node"
  },
  {
    "name": "Movement",
    "lat": 39.9586314,
    "lon": -75.1553524,
    "city": "Philadelphia",
    "state": "Pennsylvania",
    "website": "https://movementgyms.com/callowhill",
    "opening_hours": "Mo-Fr 07:00-22:00, Sa-Su 08:00-22:00",
    "osm_id": 9380749033,
    "osm_type": "node"
  },
  {
    "name": "Aire d'escalade",
    "lat": 45.5661216,
    "lon": -73.6394156,
    "city": "",
    "state": "",
    "website": "",
    "opening_hours": "",
    "osm_id": 9405700501,
    "osm_type": "node"
  },
  {
    "name": "R Bruce Abernethy Climbing Wall",
    "lat": 40.8049676,
    "lon": -96.5577809,
    "city": "",
    "state": "",
    "website": "",
    "opening_hours": "",
    "osm_id": 9418286186,
    "osm_type": "node"
  },
  {
    "name": "Vertical Dreams",
    "lat": 42.990318,
    "lon": -71.4688601,
    "city": "Manchester",
    "state": "New Hampshire",
    "website": "https://verticaldreams.com/locations/manchester/",
    "opening_hours": "Mo-Fr 15:00-21:00; Sa 11:00-20:00; Su 11:00-19:00; PH off",
    "osm_id": 9420391398,
    "osm_type": "node"
  },
  {
    "name": "Crux Climbing Center Central",
    "lat": 30.3260561,
    "lon": -97.7170815,
    "city": "Austin",
    "state": "Texas",
    "website": "https://www.cruxclimbingcenter.com/central-austin/",
    "opening_hours": "Mo-Fr 06:00-23:00; Sa-Su 10:00-20:00",
    "osm_id": 9431559487,
    "osm_type": "node"
  },
  {
    "name": "Rock Climbing Wall",
    "lat": 37.0523785,
    "lon": -122.0551786,
    "city": "",
    "state": "",
    "website": "",
    "opening_hours": "",
    "osm_id": 9450841536,
    "osm_type": "node"
  },
  {
    "name": "High Steppe Climbing Center",
    "lat": 46.610563,
    "lon": -120.4935817,
    "city": "",
    "state": "",
    "website": "",
    "opening_hours": "",
    "osm_id": 9470844276,
    "osm_type": "node"
  },
  {
    "name": "Sunshine Wall",
    "lat": 38.8607468,
    "lon": -109.7425731,
    "city": "",
    "state": "",
    "website": "",
    "opening_hours": "",
    "osm_id": 9502015343,
    "osm_type": "node"
  },
  {
    "name": "Central Rock Gym Randolph",
    "lat": 42.1995653,
    "lon": -71.0664666,
    "city": "",
    "state": "",
    "website": "https://centralrockgym.com/randolph/",
    "opening_hours": "",
    "osm_id": 9502130417,
    "osm_type": "node"
  },
  {
    "name": "Movement Lincoln Park",
    "lat": 41.907987,
    "lon": -87.6495845,
    "city": "Chicago",
    "state": "Illinois",
    "website": "https://movementgyms.com/lincoln-park/",
    "opening_hours": "Mo-Fr 06:00-23:00; Sa 08:00-20:00; Su 08:00-18:00",
    "osm_id": 9556324745,
    "osm_type": "node"
  },
  {
    "name": "Stone Age Climbing Gym",
    "lat": 35.1048723,
    "lon": -106.5998077,
    "city": "",
    "state": "",
    "website": "",
    "opening_hours": "",
    "osm_id": 9564933473,
    "osm_type": "node"
  },
  {
    "name": "The Overlook",
    "lat": 33.731559,
    "lon": -84.421264,
    "city": "Atlanta",
    "state": "Georgia",
    "website": "https://overlookclimbing.com/",
    "opening_hours": "",
    "osm_id": 9597830232,
    "osm_type": "node"
  },
  {
    "name": "Pacific Pipe",
    "lat": 37.8159777,
    "lon": -122.288745,
    "city": "",
    "state": "",
    "website": "https://touchstoneclimbing.com/pacific-pipe/",
    "opening_hours": "",
    "osm_id": 9600802720,
    "osm_type": "node"
  },
  {
    "name": "Austin Bouldering Project Westgate",
    "lat": 30.2308597,
    "lon": -97.7992849,
    "city": "Austin",
    "state": "Texas",
    "website": "",
    "opening_hours": "Mo-Fr 06:00-22:00; Sa-Su 08:00-23:00",
    "osm_id": 9645875684,
    "osm_type": "node"
  },
  {
    "name": "City Climb",
    "lat": 41.3246801,
    "lon": -72.9321525,
    "city": "",
    "state": "",
    "website": "https://www.cityclimbgym.com/",
    "opening_hours": "",
    "osm_id": 9683069393,
    "osm_type": "node"
  },
  {
    "name": "Steep Rock",
    "lat": 40.8166213,
    "lon": -73.9581389,
    "city": "",
    "state": "",
    "website": "",
    "opening_hours": "Mo-Fr 08:00-23:00; Sa, Su 09:00-22:00",
    "osm_id": 9692914589,
    "osm_type": "node"
  },
  {
    "name": "9eh Eastern Bloc",
    "lat": 44.3282494,
    "lon": -76.1641568,
    "city": "",
    "state": "",
    "website": "",
    "opening_hours": "",
    "osm_id": 9709228556,
    "osm_type": "node"
  },
  {
    "name": "Denver Bouldering Club",
    "lat": 39.7206048,
    "lon": -105.016769,
    "city": "Denver",
    "state": "Colorado",
    "website": "https://www.denverboulderingclub.com/",
    "opening_hours": "Mo-Fr 12:00-22:00; Sa-Su 09:00-19:00",
    "osm_id": 9784527418,
    "osm_type": "node"
  },
  {
    "name": "Clip ‘n Climb Brossard",
    "lat": 45.4711469,
    "lon": -73.4696673,
    "city": "Brossard",
    "state": "",
    "website": "",
    "opening_hours": "Mo-Su 16:00-21:00",
    "osm_id": 9809148763,
    "osm_type": "node"
  },
  {
    "name": "Bouldering Project",
    "lat": 40.7545049,
    "lon": -111.9034794,
    "city": "",
    "state": "",
    "website": "https://campus.evo.com/bouldering-project/",
    "opening_hours": "",
    "osm_id": 9814840938,
    "osm_type": "node"
  },
  {
    "name": "Kendall Cliffs Climbing Gym",
    "lat": 41.2195345,
    "lon": -81.4926822,
    "city": "",
    "state": "",
    "website": "",
    "opening_hours": "",
    "osm_id": 9837441317,
    "osm_type": "node"
  },
  {
    "name": "First Ascent Humboldt Park",
    "lat": 41.8964703,
    "lon": -87.7015534,
    "city": "Chicago",
    "state": "Illinois",
    "website": "https://faclimbing.com/chicago/humboldt-park/",
    "opening_hours": "Mo-Fr 06:00-23:00; Sa, Su 10:00-20:00",
    "osm_id": 9850361534,
    "osm_type": "node"
  },
  {
    "name": "Crag Climb",
    "lat": 34.1471993,
    "lon": -94.7492131,
    "city": "",
    "state": "",
    "website": "",
    "opening_hours": "",
    "osm_id": 9881830755,
    "osm_type": "node"
  },
  {
    "name": "Allez Up Verdun",
    "lat": 45.4622825,
    "lon": -73.5636934,
    "city": "Verdun",
    "state": "",
    "website": "",
    "opening_hours": "Mo-Fr 08:30-00:00; Sa-Su 08:30-22:00",
    "osm_id": 9888750319,
    "osm_type": "node"
  },
  {
    "name": "The Oaks Climbing",
    "lat": 37.8915901,
    "lon": -122.2779901,
    "city": "Berkeley",
    "state": "California",
    "website": "",
    "opening_hours": "",
    "osm_id": 9892676295,
    "osm_type": "node"
  },
  {
    "name": "Climbing Tower",
    "lat": 39.2008671,
    "lon": -95.4056767,
    "city": "",
    "state": "",
    "website": "",
    "opening_hours": "",
    "osm_id": 9900132617,
    "osm_type": "node"
  },
  {
    "name": "Grotto Climbing & Yoga",
    "lat": 32.8950123,
    "lon": -117.127592,
    "city": "",
    "state": "",
    "website": "https://www.grottoclimbing.com/",
    "opening_hours": "",
    "osm_id": 9906585132,
    "osm_type": "node"
  },
  {
    "name": "The Hive",
    "lat": 49.2520261,
    "lon": -122.7356144,
    "city": "",
    "state": "",
    "website": "https://hiveclimbing.com/",
    "opening_hours": "Mo 14:00-22:00,Tu-Fr 12:00-22:00,Sa-Su 10:00-21:00",
    "osm_id": 9960322389,
    "osm_type": "node"
  },
  {
    "name": "Valley Rock Gym",
    "lat": 44.5630992,
    "lon": -123.2630054,
    "city": "Corvallis",
    "state": "Oregon",
    "website": "https://valleyrockgym.com/home",
    "opening_hours": "Mo-Fr 06:00-22:00; Sa 09:00-21:00; Su 09:00-19:00",
    "osm_id": 9976115744,
    "osm_type": "node"
  },
  {
    "name": "Bouldering wall",
    "lat": 32.5869028,
    "lon": -117.1321544,
    "city": "",
    "state": "",
    "website": "",
    "opening_hours": "",
    "osm_id": 9976146884,
    "osm_type": "node"
  },
  {
    "name": "Bloc Action",
    "lat": 45.727945,
    "lon": -73.6164891,
    "city": "Mascouche",
    "state": "",
    "website": "https://blocaction.ca/",
    "opening_hours": "Mo-Fr 09:00-23:00; Sa, Su 09:00-21:00",
    "osm_id": 10017859796,
    "osm_type": "node"
  },
  {
    "name": "The Mine Bouldering Gym",
    "lat": 40.7236809,
    "lon": -111.540772,
    "city": "",
    "state": "",
    "website": "",
    "opening_hours": "",
    "osm_id": 10027669453,
    "osm_type": "node"
  },
  {
    "name": "Adrenaline Climbing",
    "lat": 34.0731645,
    "lon": -84.0580026,
    "city": "Suwanee",
    "state": "Georgia",
    "website": "https://www.adrenalineclimbing.com/",
    "opening_hours": "",
    "osm_id": 10027773371,
    "osm_type": "node"
  },
  {
    "name": "Basecamp",
    "lat": 43.6496403,
    "lon": -79.3976916,
    "city": "Toronto",
    "state": "",
    "website": "https://basecampclimbing.ca/",
    "opening_hours": "Mo, We, Fr 07:00-23:00; Tu, Th 10:00-23:00; Sa-Su 10:00-22:00",
    "osm_id": 10049718648,
    "osm_type": "node"
  },
  {
    "name": "Rock Dimensions Climbing Guides",
    "lat": 36.2182605,
    "lon": -81.6842354,
    "city": "Boone",
    "state": "North Carolina",
    "website": "",
    "opening_hours": "",
    "osm_id": 10060036567,
    "osm_type": "node"
  },
  {
    "name": "Steelworkers Park Climbing Wall",
    "lat": 41.7394982,
    "lon": -87.5304723,
    "city": "",
    "state": "",
    "website": "https://www.chicagoparkdistrict.com/parks-facilities/steelworkersparkclimbingwall",
    "opening_hours": "",
    "osm_id": 10114127522,
    "osm_type": "node"
  },
  {
    "name": "Movement",
    "lat": 39.3361014,
    "lon": -76.6444278,
    "city": "",
    "state": "",
    "website": "https://movementgyms.com/hampden/",
    "opening_hours": "Mo-Fr 06:00-22:00; Sa 08:00-20:00; Su 08:00-18:00",
    "osm_id": 10179926308,
    "osm_type": "node"
  },
  {
    "name": "The Pad Climbing",
    "lat": 35.2574623,
    "lon": -120.6416758,
    "city": "",
    "state": "",
    "website": "",
    "opening_hours": "",
    "osm_id": 10200265943,
    "osm_type": "node"
  },
  {
    "name": "Mosaic Boulders",
    "lat": 37.8674458,
    "lon": -122.2587696,
    "city": "Berkeley",
    "state": "California",
    "website": "https://www.mosaicboulders.com/",
    "opening_hours": "",
    "osm_id": 10205094246,
    "osm_type": "node"
  },
  {
    "name": "Sequence Climb",
    "lat": 39.0924727,
    "lon": -94.590162,
    "city": "Kansas City",
    "state": "Missouri",
    "website": "https://www.sequenceclimb.com/",
    "opening_hours": "",
    "osm_id": 10221938314,
    "osm_type": "node"
  },
  {
    "name": "Movement Gowanus",
    "lat": 40.6814293,
    "lon": -73.9854375,
    "city": "",
    "state": "",
    "website": "https://gowanus.thecliffsclimbing.com",
    "opening_hours": "Mo-Fr 07:00-23:00; Sa-Su 09:00-22:00",
    "osm_id": 10237886219,
    "osm_type": "node"
  },
  {
    "name": "Central Rock Gym Waltham",
    "lat": 42.3872794,
    "lon": -71.2015876,
    "city": "",
    "state": "",
    "website": "https://centralrockgym.com/waltham/",
    "opening_hours": "Mo-Fr 15:00-22:00; Sa-Su 12:00-18:00",
    "osm_id": 10274497009,
    "osm_type": "node"
  },
  {
    "name": "Coral Cliffs Rock Climbing",
    "lat": 26.0807869,
    "lon": -80.1753507,
    "city": "",
    "state": "",
    "website": "http://coralcliffs.com",
    "opening_hours": "Mo-Fr 12:00-20:00; Sa-Su 11:00-18:00",
    "osm_id": 10290246310,
    "osm_type": "node"
  },
  {
    "name": "projectROCK",
    "lat": 26.171906,
    "lon": -80.1453592,
    "city": "",
    "state": "",
    "website": "https://projectrock.com/",
    "opening_hours": "Mo-Th 15:00-20:00; Fr 12:00-20:00; Sa 10:00-20:00; Su 10:00-18:00",
    "osm_id": 10290261309,
    "osm_type": "node"
  },
  {
    "name": "Session Climbing Center",
    "lat": 38.4290765,
    "lon": -122.7143957,
    "city": "",
    "state": "",
    "website": "https://www.sessionclimbing.com/",
    "opening_hours": "Mo-Fr 06:00-22:00; Sa-Su 09:00-20:00",
    "osm_id": 10303560609,
    "osm_type": "node"
  },
  {
    "name": "Allez Up Mile-End",
    "lat": 45.5278691,
    "lon": -73.5981906,
    "city": "Montréal",
    "state": "",
    "website": "",
    "opening_hours": "Mo-Fr 08:30-00:00; Sa-Su 08:30-22:00",
    "osm_id": 10309563656,
    "osm_type": "node"
  },
  {
    "name": "Climb Nittany",
    "lat": 40.7764274,
    "lon": -77.7714704,
    "city": "Boalsburg",
    "state": "Pennsylvania",
    "website": "https://5.life/climbnittany",
    "opening_hours": "Tu-Fr 15:00-22:00; Sa-Su 09:00-18:00",
    "osm_id": 10413167425,
    "osm_type": "node"
  },
  {
    "name": "The Summit",
    "lat": 38.7805723,
    "lon": -82.7600422,
    "city": "",
    "state": "",
    "website": "",
    "opening_hours": "",
    "osm_id": 10536949235,
    "osm_type": "node"
  },
  {
    "name": "X-Scream",
    "lat": 38.7794224,
    "lon": -82.7609795,
    "city": "",
    "state": "",
    "website": "",
    "opening_hours": "",
    "osm_id": 10536953199,
    "osm_type": "node"
  },
  {
    "name": "Bouldering practice",
    "lat": 44.3609425,
    "lon": -121.1412918,
    "city": "",
    "state": "",
    "website": "",
    "opening_hours": "",
    "osm_id": 10565253050,
    "osm_type": "node"
  },
  {
    "name": "Bouldering practice",
    "lat": 44.3653651,
    "lon": -121.1379408,
    "city": "",
    "state": "",
    "website": "",
    "opening_hours": "",
    "osm_id": 10568560537,
    "osm_type": "node"
  },
  {
    "name": "Central Rock Gym Harvard",
    "lat": 42.3731423,
    "lon": -71.1202404,
    "city": "Cambridge",
    "state": "Massachusetts",
    "website": "https://centralrockgym.com/harvard-square/",
    "opening_hours": "",
    "osm_id": 10589568005,
    "osm_type": "node"
  },
  {
    "name": "Le Crux Laval",
    "lat": 45.565481,
    "lon": -73.7295517,
    "city": "Laval",
    "state": "",
    "website": "https://allezup.com/en/",
    "opening_hours": "Mo-Fr 09:30-23:00; Sa-Su 08:30-21:00",
    "osm_id": 10589908469,
    "osm_type": "node"
  },
  {
    "name": "Trees Climbing Wall",
    "lat": 40.4446257,
    "lon": -79.9652408,
    "city": "",
    "state": "",
    "website": "",
    "opening_hours": "Mo-Th 16:00-21:00; Fr 14:00-19:00; Sa 12:00-17:00; Su off",
    "osm_id": 10603021936,
    "osm_type": "node"
  },
  {
    "name": "Triangle Rock Club - Durham",
    "lat": 35.9507087,
    "lon": -78.9245465,
    "city": "Durham",
    "state": "North Carolina",
    "website": "https://www.trianglerockclub.com/durham/",
    "opening_hours": "",
    "osm_id": 10604904232,
    "osm_type": "node"
  },
  {
    "name": "Boulder Lab",
    "lat": 35.0597451,
    "lon": -106.5580446,
    "city": "",
    "state": "",
    "website": "",
    "opening_hours": "",
    "osm_id": 10606069320,
    "osm_type": "node"
  },
  {
    "name": "Délire Escalade Pierre-Bertrand",
    "lat": 46.8267385,
    "lon": -71.2768905,
    "city": "Québec",
    "state": "",
    "website": "https://www.delirescalade.com",
    "opening_hours": "",
    "osm_id": 10681563133,
    "osm_type": "node"
  },
  {
    "name": "Délire Escalade Beauport",
    "lat": 46.8449799,
    "lon": -71.2177715,
    "city": "Québec",
    "state": "",
    "website": "https://www.delirescalade.com",
    "opening_hours": "",
    "osm_id": 10681576566,
    "osm_type": "node"
  },
  {
    "name": "L'Accroché - Climbing Center",
    "lat": 46.7725926,
    "lon": -71.1417388,
    "city": "Lévis",
    "state": "",
    "website": "https://www.delirescalade.com",
    "opening_hours": "",
    "osm_id": 10681579433,
    "osm_type": "node"
  },
  {
    "name": "North Mass Boulder",
    "lat": 39.7852927,
    "lon": -86.1340058,
    "city": "Indianapolis",
    "state": "Indiana",
    "website": "https://www.northmassboulder.com/",
    "opening_hours": "Mo-Su 06:00-23:00",
    "osm_id": 10688533981,
    "osm_type": "node"
  },
  {
    "name": "Paradiso Climbing Co-op",
    "lat": 41.6326721,
    "lon": -81.4469219,
    "city": "",
    "state": "",
    "website": "https://www.paradisoclimbing.co/",
    "opening_hours": "Tu-Th 17:00-21:00",
    "osm_id": 10726310577,
    "osm_type": "node"
  },
  {
    "name": "Boulder Crossfit",
    "lat": 40.0232478,
    "lon": -105.2373585,
    "city": "",
    "state": "",
    "website": "https://bouldercrossfit.com",
    "opening_hours": "",
    "osm_id": 10731789604,
    "osm_type": "node"
  },
  {
    "name": "Team Texas Training Center",
    "lat": 32.9733892,
    "lon": -96.8438936,
    "city": "",
    "state": "",
    "website": "",
    "opening_hours": "",
    "osm_id": 10741791697,
    "osm_type": "node"
  },
  {
    "name": "Mesa Rim Austin",
    "lat": 30.3430109,
    "lon": -97.6854227,
    "city": "Austin",
    "state": "Texas",
    "website": "https://mesarim.com/austin/",
    "opening_hours": "Mo-Fr 06:00-23:00; Sa-Su 08:00-21:00",
    "osm_id": 10815594105,
    "osm_type": "node"
  },
  {
    "name": "Rockreation",
    "lat": 34.034782,
    "lon": -118.4533761,
    "city": "",
    "state": "",
    "website": "",
    "opening_hours": "",
    "osm_id": 10830557502,
    "osm_type": "node"
  },
  {
    "name": "The Rock Oasis Inc.",
    "lat": 43.6658734,
    "lon": -79.3429006,
    "city": "Toronto",
    "state": "",
    "website": "https://www.rockoasis.com/",
    "opening_hours": "Mo-Fr 09:00-23:00; Sa, Su 09:00-22:00",
    "osm_id": 10863606071,
    "osm_type": "node"
  },
  {
    "name": "Aviary",
    "lat": 49.2670032,
    "lon": -123.2500639,
    "city": "",
    "state": "",
    "website": "https://ubc-aviary.com/",
    "opening_hours": "",
    "osm_id": 10874203994,
    "osm_type": "node"
  },
  {
    "name": "Central Rock Gym Framingham",
    "lat": 42.3185819,
    "lon": -71.3974144,
    "city": "",
    "state": "",
    "website": "https://centralrockgym.com/framingham/",
    "opening_hours": "Mo 14:00-22:00; Tu, Th 11:00-22:00; We 08:00-22:00; Fr 11:00-21:00; Sa 09:00-20:00; Su 09:00-18:00",
    "osm_id": 10879178264,
    "osm_type": "node"
  },
  {
    "name": "Central Rock Gym Fenway",
    "lat": 42.3473648,
    "lon": -71.1005236,
    "city": "Boston",
    "state": "Massachusetts",
    "website": "https://centralrockgym.com/fenway/",
    "opening_hours": "",
    "osm_id": 10879354491,
    "osm_type": "node"
  },
  {
    "name": "Central Rock Gym Hadley",
    "lat": 42.342051,
    "lon": -72.5846123,
    "city": "",
    "state": "",
    "website": "https://centralrockgym.com/hadley/",
    "opening_hours": "",
    "osm_id": 10879484616,
    "osm_type": "node"
  },
  {
    "name": "Central Rock Gym Worcester",
    "lat": 42.2969551,
    "lon": -71.7972224,
    "city": "",
    "state": "",
    "website": "",
    "opening_hours": "",
    "osm_id": 10879502586,
    "osm_type": "node"
  },
  {
    "name": "Central Rock Gym Watertown",
    "lat": 42.3694218,
    "lon": -71.1987407,
    "city": "Watertown",
    "state": "Massachusetts",
    "website": "https://centralrockgym.com/watertown/",
    "opening_hours": "Sa-Su 08:00-20:00; Mo-Th 06:00-22:00; Fr 10:00-22:00",
    "osm_id": 10879505714,
    "osm_type": "node"
  },
  {
    "name": "Central Rock Gym Arsenal Yards",
    "lat": 42.3621616,
    "lon": -71.1570258,
    "city": "",
    "state": "",
    "website": "https://centralrockgym.com/arsenalyards/",
    "opening_hours": "Mo-Th 13:30-21:30, Fr 12:00-20:00, Sa-Su 10:00-18:00",
    "osm_id": 10879516716,
    "osm_type": "node"
  },
  {
    "name": "CoMo Rocks",
    "lat": 38.9109757,
    "lon": -92.3369558,
    "city": "",
    "state": "",
    "website": "",
    "opening_hours": "",
    "osm_id": 10934251059,
    "osm_type": "node"
  },
  {
    "name": "Zone Bloc",
    "lat": 45.2995924,
    "lon": -72.6679662,
    "city": "",
    "state": "",
    "website": "",
    "opening_hours": "",
    "osm_id": 10935519557,
    "osm_type": "node"
  },
  {
    "name": "Alta Climbing and Fitness",
    "lat": 33.6365572,
    "lon": -111.8842609,
    "city": "",
    "state": "",
    "website": "",
    "opening_hours": "",
    "osm_id": 10938672387,
    "osm_type": "node"
  },
  {
    "name": "Climb So iLL at the Power Plant",
    "lat": 38.6147657,
    "lon": -90.2078617,
    "city": "Saint Louis",
    "state": "Missouri",
    "website": "https://stlouis.climbsoill.com/",
    "opening_hours": "Mo-Fr 11:00-22:00; Sa 10:00-20:00; Su 10:00-18:00",
    "osm_id": 10962693749,
    "osm_type": "node"
  },
  {
    "name": "MNSU Climbing Wall",
    "lat": 44.1388066,
    "lon": -93.9985872,
    "city": "",
    "state": "",
    "website": "",
    "opening_hours": "",
    "osm_id": 10967289031,
    "osm_type": "node"
  },
  {
    "name": "C.O.P.E. Course",
    "lat": 43.4596827,
    "lon": -73.5846691,
    "city": "",
    "state": "",
    "website": "",
    "opening_hours": "",
    "osm_id": 11003007181,
    "osm_type": "node"
  },
  {
    "name": "The Jug",
    "lat": 44.2519432,
    "lon": -121.1704916,
    "city": "Redmond",
    "state": "Oregon",
    "website": "https://thejugrockgym.com",
    "opening_hours": "",
    "osm_id": 11006347981,
    "osm_type": "node"
  },
  {
    "name": "Rock Climbing Wall",
    "lat": 43.6120094,
    "lon": -89.7923522,
    "city": "",
    "state": "",
    "website": "",
    "opening_hours": "",
    "osm_id": 11015150347,
    "osm_type": "node"
  },
  {
    "name": "Dartmouth Climbing Gym",
    "lat": 43.7037117,
    "lon": -72.2955044,
    "city": "Hanover",
    "state": "New Hampshire",
    "website": "https://outdoors.dartmouth.edu/services/climbing_gym.html",
    "opening_hours": "Mo-Fr 08:00-11:00, 16:00-22:00, Sa-Su 16:00-22:00",
    "osm_id": 11020573224,
    "osm_type": "node"
  },
  {
    "name": "High Point Climbing Riverside",
    "lat": 35.0724024,
    "lon": -85.2654621,
    "city": "",
    "state": "",
    "website": "",
    "opening_hours": "",
    "osm_id": 11050017953,
    "osm_type": "node"
  },
  {
    "name": "Central Rock Gym Atlanta Bouldering",
    "lat": 33.8831804,
    "lon": -84.2672485,
    "city": "",
    "state": "",
    "website": "https://centralrockgym.com/atlanta-bouldering/",
    "opening_hours": "Su 11:00-18:00; Mo 06:00-22:00; Tu 11:00-22:00; We 06:00-22:00; Th-Fr 11:00-22:00; Sa 10:00-20:00",
    "osm_id": 11062239405,
    "osm_type": "node"
  },
  {
    "name": "Hangdog Outdoor Adventure",
    "lat": 40.671525,
    "lon": -75.2065327,
    "city": "Easton",
    "state": "Pennsylvania",
    "website": "",
    "opening_hours": "",
    "osm_id": 11114558794,
    "osm_type": "node"
  },
  {
    "name": "Center 45",
    "lat": 36.2138925,
    "lon": -81.6367356,
    "city": "Boone",
    "state": "North Carolina",
    "website": "https://www.center45.com/",
    "opening_hours": "Mo 15:00-21:00; Tu-Sa 10:00-21:00; Su 10:00-19:00",
    "osm_id": 11148611383,
    "osm_type": "node"
  },
  {
    "name": "Pure Bouldering Gym",
    "lat": 38.8139606,
    "lon": -104.8398531,
    "city": "Colorado Springs",
    "state": "Colorado",
    "website": "https://pureboulderinggym.com/",
    "opening_hours": "Mo-Sa 10:00-21:00,Su 10:00-18:00",
    "osm_id": 11214923826,
    "osm_type": "node"
  },
  {
    "name": "Albany's Indoor Rockgym (AIR)",
    "lat": 42.6882797,
    "lon": -73.7980822,
    "city": "",
    "state": "",
    "website": "",
    "opening_hours": "Mo 17:00-22:00; Tu-Fr 12:00-22:00; Sa-Su 12:00-21:00",
    "osm_id": 11227852985,
    "osm_type": "node"
  },
  {
    "name": "Project Climbing Cloverdale",
    "lat": 49.1204229,
    "lon": -122.728713,
    "city": "Surrey",
    "state": "",
    "website": "https://projectclimbing.ca/cloverdale",
    "opening_hours": "Mo,We-Fr 11:00-22:30; Tu 13:00-22:30; Sa-Su 11:00-21:00; ",
    "osm_id": 11233028949,
    "osm_type": "node"
  },
  {
    "name": "The Gravity Vault",
    "lat": 40.8123815,
    "lon": -74.2162813,
    "city": "",
    "state": "",
    "website": "",
    "opening_hours": "",
    "osm_id": 11233131476,
    "osm_type": "node"
  },
  {
    "name": "Windsor Rock Gym",
    "lat": 42.3156884,
    "lon": -83.003659,
    "city": "",
    "state": "",
    "website": "http://www.windsorrockgym.com",
    "opening_hours": "Tu-Fr 14:00-23:00;Sa-Su 12:00-18:00",
    "osm_id": 11245595118,
    "osm_type": "node"
  },
  {
    "name": "Ape Index",
    "lat": 33.5718076,
    "lon": -112.2556873,
    "city": "Peoria",
    "state": "Arizona",
    "website": "https://climbapeindex.com",
    "opening_hours": "Mo-Th 15:00-22:00; Fr 15:00-19:00; Sa-Su 10:00-19:00",
    "osm_id": 11279810370,
    "osm_type": "node"
  },
  {
    "name": "Aidan's Climbing & Bouldering Wall",
    "lat": 44.568374,
    "lon": -69.665159,
    "city": "",
    "state": "",
    "website": "",
    "opening_hours": "",
    "osm_id": 11357932094,
    "osm_type": "node"
  },
  {
    "name": "Brickopolis Klime Wall",
    "lat": 35.4651651,
    "lon": -97.5098536,
    "city": "",
    "state": "",
    "website": "",
    "opening_hours": "",
    "osm_id": 11388571865,
    "osm_type": "node"
  },
  {
    "name": "Iron City Boulders",
    "lat": 40.4798755,
    "lon": -79.9569854,
    "city": "",
    "state": "",
    "website": "https://ironcityboulders.com/",
    "opening_hours": "Mo-Fr 06:00-22:00; Sa,Su 09:00-21:00",
    "osm_id": 11392943269,
    "osm_type": "node"
  },
  {
    "name": "The Hive Surrey",
    "lat": 49.2047156,
    "lon": -122.882185,
    "city": "",
    "state": "",
    "website": "https://hiveclimbing.com/",
    "opening_hours": "",
    "osm_id": 11423820639,
    "osm_type": "node"
  },
  {
    "name": "Coulée Ricard",
    "lat": 47.6714532,
    "lon": -70.6253974,
    "city": "",
    "state": "",
    "website": "",
    "opening_hours": "",
    "osm_id": 11502027867,
    "osm_type": "node"
  },
  {
    "name": "Sportrock Climbing Center",
    "lat": 39.1160144,
    "lon": -77.1971212,
    "city": "",
    "state": "",
    "website": "",
    "opening_hours": "",
    "osm_id": 11506692344,
    "osm_type": "node"
  },
  {
    "name": "The Front Climbing Club",
    "lat": 41.2310089,
    "lon": -111.9752036,
    "city": "",
    "state": "",
    "website": "https://thefrontclimbingclub.com/",
    "opening_hours": "Mo-Fr 06:00-23:00; Sa-Su 09:00-22:00",
    "osm_id": 11513841697,
    "osm_type": "node"
  },
  {
    "name": "Talking Headwall",
    "lat": 38.9463671,
    "lon": -78.3030505,
    "city": "",
    "state": "",
    "website": "",
    "opening_hours": "",
    "osm_id": 11522828857,
    "osm_type": "node"
  },
  {
    "name": "State Climb",
    "lat": 38.4715524,
    "lon": -77.9960213,
    "city": "",
    "state": "",
    "website": "",
    "opening_hours": "",
    "osm_id": 11608828727,
    "osm_type": "node"
  },
  {
    "name": "Ascent Climbing Gym",
    "lat": 41.3155825,
    "lon": -72.90526,
    "city": "",
    "state": "",
    "website": "https://ascentclimbinggym.com/",
    "opening_hours": "",
    "osm_id": 11667621941,
    "osm_type": "node"
  },
  {
    "name": "Monster Mountain",
    "lat": 38.9649669,
    "lon": -94.7178552,
    "city": "",
    "state": "",
    "website": "",
    "opening_hours": "",
    "osm_id": 11732766816,
    "osm_type": "node"
  },
  {
    "name": "Brooklyn Boulders",
    "lat": 40.7528765,
    "lon": -73.9405483,
    "city": "",
    "state": "",
    "website": "",
    "opening_hours": "",
    "osm_id": 11737227715,
    "osm_type": "node"
  },
  {
    "name": "Clips & Reels Climbing gym",
    "lat": 44.9293503,
    "lon": -72.5035154,
    "city": "",
    "state": "",
    "website": "https://jaypeakresort.com/things-to-do/activities/clips-reels-climbing-gym",
    "opening_hours": "",
    "osm_id": 11737416754,
    "osm_type": "node"
  },
  {
    "name": "Climb West",
    "lat": 36.1530445,
    "lon": -86.8280456,
    "city": "",
    "state": "",
    "website": "",
    "opening_hours": "Mo-Fr 06:00-22:00; Sa 09:00-21:00; Su 11:00-18:00",
    "osm_id": 11778973371,
    "osm_type": "node"
  },
  {
    "name": "Wild Walls Climbing Gym",
    "lat": 47.6546632,
    "lon": -117.4152862,
    "city": "Spokane",
    "state": "Washington",
    "website": "https://wildwalls.com/",
    "opening_hours": "Mo-Fr 10:00-22:00; Sa 09:00-19:00; Su 10:00-19:00",
    "osm_id": 11860942069,
    "osm_type": "node"
  },
  {
    "name": "Movement Wrigleyville",
    "lat": 41.9470151,
    "lon": -87.6576683,
    "city": "Chicago",
    "state": "Illinois",
    "website": "",
    "opening_hours": "Mo-Fr 06:00-23:00; Sa 08:00-20:00; Su 08:00-18:00",
    "osm_id": 11966801784,
    "osm_type": "node"
  },
  {
    "name": "Sender One",
    "lat": 34.0598989,
    "lon": -118.4442433,
    "city": "",
    "state": "",
    "website": "",
    "opening_hours": "",
    "osm_id": 11970784995,
    "osm_type": "node"
  },
  {
    "name": "RoKC Underground",
    "lat": 39.069789,
    "lon": -94.6014276,
    "city": "Kansas City",
    "state": "Missouri",
    "website": "",
    "opening_hours": "",
    "osm_id": 11981580743,
    "osm_type": "node"
  },
  {
    "name": "The Rock",
    "lat": 41.0131358,
    "lon": -111.912856,
    "city": "",
    "state": "",
    "website": "",
    "opening_hours": "",
    "osm_id": 11991182115,
    "osm_type": "node"
  },
  {
    "name": "RockHaus Climbing",
    "lat": 43.7951304,
    "lon": -79.5422884,
    "city": "Vaughan",
    "state": "",
    "website": "https://rockhausclimbing.com/",
    "opening_hours": "",
    "osm_id": 11992742556,
    "osm_type": "node"
  },
  {
    "name": "Outdoor Adventure Center",
    "lat": 25.7171915,
    "lon": -80.2769682,
    "city": "",
    "state": "",
    "website": "",
    "opening_hours": "",
    "osm_id": 12081906814,
    "osm_type": "node"
  },
  {
    "name": "The Hangar Climbing Lounge",
    "lat": 49.4831821,
    "lon": -123.7508985,
    "city": "",
    "state": "",
    "website": "",
    "opening_hours": "",
    "osm_id": 12101837861,
    "osm_type": "node"
  },
  {
    "name": "Skyhook Bouldering",
    "lat": 45.5053187,
    "lon": -122.6535076,
    "city": "Portland",
    "state": "Oregon",
    "website": "https://www.skyhookbouldering.com/",
    "opening_hours": "",
    "osm_id": 12164570416,
    "osm_type": "node"
  },
  {
    "name": "Crimper's Climbing Gym",
    "lat": 37.151414,
    "lon": -80.4111823,
    "city": "Christiansburg",
    "state": "Virginia",
    "website": "",
    "opening_hours": "",
    "osm_id": 12206097504,
    "osm_type": "node"
  },
  {
    "name": "Bomber Boulders Climbing Centre",
    "lat": 49.2577119,
    "lon": -124.8117441,
    "city": "",
    "state": "",
    "website": "",
    "opening_hours": "",
    "osm_id": 12230780701,
    "osm_type": "node"
  },
  {
    "name": "Endurance Climbing",
    "lat": 48.4563465,
    "lon": -122.33195,
    "city": "Burlington",
    "state": "Washington",
    "website": "https://www.enduranceclimbing.com/",
    "opening_hours": "Mo-Sa 12:00-20:00; Su 12:00-19:00",
    "osm_id": 12232165801,
    "osm_type": "node"
  },
  {
    "name": "BaseCamp Climbing Gym",
    "lat": 39.5280103,
    "lon": -119.8140849,
    "city": "",
    "state": "",
    "website": "",
    "opening_hours": "",
    "osm_id": 12249022539,
    "osm_type": "node"
  },
  {
    "name": "North Peak Climbing & Fitness",
    "lat": 39.5468502,
    "lon": -119.7844376,
    "city": "Reno",
    "state": "Nevada",
    "website": "",
    "opening_hours": "",
    "osm_id": 12289519557,
    "osm_type": "node"
  },
  {
    "name": "We Rick The Spectrum Kid's Gym",
    "lat": 43.4457631,
    "lon": -79.6977925,
    "city": "",
    "state": "",
    "website": "https://www.werockthespectrumoakville.ca/",
    "opening_hours": "",
    "osm_id": 12290235493,
    "osm_type": "node"
  },
  {
    "name": "Adventure Air Sports",
    "lat": 34.0115201,
    "lon": -84.5609523,
    "city": "",
    "state": "",
    "website": "https://kennesaw.adventureairsports.com/",
    "opening_hours": "We-Th 12:00-20:00; Fr 12:00-22:00; Sa 10:00-22:00; Su 12:00-19:00",
    "osm_id": 12308471940,
    "osm_type": "node"
  },
  {
    "name": "Velocity Climbing",
    "lat": 25.8128398,
    "lon": -80.2339466,
    "city": "",
    "state": "",
    "website": "https://www.velocityclimbing.com/",
    "opening_hours": "Su-Th 15:00-22:00; Fr-Sa 09:00-20:00",
    "osm_id": 12335926701,
    "osm_type": "node"
  },
  {
    "name": "Central Rock Gym",
    "lat": 33.7739253,
    "lon": -84.3844536,
    "city": "",
    "state": "",
    "website": "https://centralrockgym.com/midtown/",
    "opening_hours": "Mo 06:00-22:00; Tu 11:00-22:00; We 06:00-22:00; Th-Fr 11:00-22:00; Sa 10:00-20:00; Su 11:00-18:00",
    "osm_id": 12373695479,
    "osm_type": "node"
  },
  {
    "name": "VITAL Climbing Gym",
    "lat": 40.7170539,
    "lon": -73.9863415,
    "city": "",
    "state": "",
    "website": "https://www.vitalclimbinggym.com/lower-east-side",
    "opening_hours": "",
    "osm_id": 12452501401,
    "osm_type": "node"
  },
  {
    "name": "Peak Experiences Richmond",
    "lat": 37.5631377,
    "lon": -77.4554986,
    "city": "Richmond",
    "state": "Virginia",
    "website": "https://www.peakexperiences.com/",
    "opening_hours": "Mo-Fr 06:00-23:00; Sa-Su 10:00-20:00",
    "osm_id": 12461479458,
    "osm_type": "node"
  },
  {
    "name": "First Ascent Avondale",
    "lat": 41.9451229,
    "lon": -87.710378,
    "city": "Chicago",
    "state": "Illinois",
    "website": "https://faclimbing.com/chicago",
    "opening_hours": "Mo-Fr 06:00-23:00; Sa, Su 09:00-20:00",
    "osm_id": 12521010346,
    "osm_type": "node"
  },
  {
    "name": "Salt Pump Climbing",
    "lat": 43.0362435,
    "lon": -70.7892147,
    "city": "Portsmouth",
    "state": "New Hampshire",
    "website": "https://www.saltpumpclimbing.com/portsmouth-new-hampshire/",
    "opening_hours": "Mo-Fr 12:00-22:00; Sa 10:00-20:00; Su 10:00-18:00",
    "osm_id": 12526993765,
    "osm_type": "node"
  },
  {
    "name": "Desdalles",
    "lat": 47.9155243,
    "lon": -70.462673,
    "city": "",
    "state": "",
    "website": "",
    "opening_hours": "",
    "osm_id": 12528256390,
    "osm_type": "node"
  },
  {
    "name": "Gandalf",
    "lat": 47.9344693,
    "lon": -70.4554284,
    "city": "",
    "state": "",
    "website": "",
    "opening_hours": "",
    "osm_id": 12528279528,
    "osm_type": "node"
  },
  {
    "name": "Ti Cul",
    "lat": 47.6600689,
    "lon": -70.6317923,
    "city": "",
    "state": "",
    "website": "",
    "opening_hours": "",
    "osm_id": 12528345513,
    "osm_type": "node"
  },
  {
    "name": "Feather Family Climbing Gym",
    "lat": 43.2652687,
    "lon": -79.916892,
    "city": "",
    "state": "",
    "website": "https://rec.mcmaster.ca/facilities/feather-family-climbing-gym",
    "opening_hours": "Tu-Fr 14:00-23:00; Su 16:00-22:00",
    "osm_id": 12530215884,
    "osm_type": "node"
  },
  {
    "name": "Rock Spot Climbing",
    "lat": 42.3500518,
    "lon": -71.1148804,
    "city": "Brookline",
    "state": "Massachusetts",
    "website": "https://brookline.rockspotclimbing.com",
    "opening_hours": "Mo-Fr 11:00-23:00; Sa,Su 10:00-23:00",
    "osm_id": 12537497375,
    "osm_type": "node"
  },
  {
    "name": "Scrapyard Climbing Collective",
    "lat": 42.7944627,
    "lon": -86.1100536,
    "city": "Holland",
    "state": "Michigan",
    "website": "https://scrapyardclimbing.com",
    "opening_hours": "Mo-Fr 12:00-22:00; Sa 10:00-20:00; Su 12:00-20:00",
    "osm_id": 12545602435,
    "osm_type": "node"
  },
  {
    "name": "ASCEND",
    "lat": 42.3849253,
    "lon": -72.5263808,
    "city": "",
    "state": "",
    "website": "",
    "opening_hours": "Su-Th 11:00-23:00, Fr-Sa 12:00-20:00",
    "osm_id": 12569496623,
    "osm_type": "node"
  },
  {
    "name": "Climb Nashville East",
    "lat": 36.1816982,
    "lon": -86.7355516,
    "city": "",
    "state": "",
    "website": "",
    "opening_hours": "",
    "osm_id": 12585946601,
    "osm_type": "node"
  },
  {
    "name": "Climb Nashville Kraft",
    "lat": 36.1088619,
    "lon": -86.757443,
    "city": "",
    "state": "",
    "website": "",
    "opening_hours": "Mo-Su 09:00-21:00",
    "osm_id": 12585946602,
    "osm_type": "node"
  },
  {
    "name": "Ruckus Climbing Gym",
    "lat": 36.0237942,
    "lon": -79.8757211,
    "city": "",
    "state": "",
    "website": "https://ruckusclimbinggym.com",
    "opening_hours": "Mo-Fr 11:00-21:00; Sa 09:00-21:00; Su 12:00-19:00",
    "osm_id": 12613930610,
    "osm_type": "node"
  },
  {
    "name": "Momentum",
    "lat": 40.6204273,
    "lon": -111.8604943,
    "city": "",
    "state": "",
    "website": "",
    "opening_hours": "Mo-Fr 06:00-23:00; Sa 10:00-22:00; Su 10:00-18:00",
    "osm_id": 12654128662,
    "osm_type": "node"
  },
  {
    "name": "Schurman Rock",
    "lat": 47.5546401,
    "lon": -122.3734675,
    "city": "",
    "state": "",
    "website": "",
    "opening_hours": "",
    "osm_id": 12703838372,
    "osm_type": "node"
  },
  {
    "name": "AquaClimb Sport",
    "lat": 40.1251012,
    "lon": -88.2097017,
    "city": "",
    "state": "",
    "website": "",
    "opening_hours": "",
    "osm_id": 12729159172,
    "osm_type": "node"
  },
  {
    "name": "Big Island Bouldering Climbing Gym",
    "lat": 44.9812859,
    "lon": -93.4571445,
    "city": "Plymoth",
    "state": "Minnesota",
    "website": "https://www.bigislandbouldering.com/",
    "opening_hours": "Mo-Fr 06:00-21:00; Sa-Su 07:00-21:00",
    "osm_id": 12752661501,
    "osm_type": "node"
  },
  {
    "name": "Stoneworks Climbing Gym",
    "lat": 45.4719446,
    "lon": -122.7907583,
    "city": "",
    "state": "",
    "website": "https://belay.com/",
    "opening_hours": "Mo-Fr 13:00-21:00; Sa-Su 13:00-20:00",
    "osm_id": 12770670303,
    "osm_type": "node"
  },
  {
    "name": "Rock Spot Climbing",
    "lat": 41.8145124,
    "lon": -71.4229913,
    "city": "",
    "state": "",
    "website": "",
    "opening_hours": "",
    "osm_id": 12838477101,
    "osm_type": "node"
  },
  {
    "name": "Outside-In",
    "lat": 37.7906439,
    "lon": -81.2075517,
    "city": "",
    "state": "",
    "website": "",
    "opening_hours": "",
    "osm_id": 12851748920,
    "osm_type": "node"
  },
  {
    "name": "Point Camp",
    "lat": 36.9912134,
    "lon": -80.5482777,
    "city": "",
    "state": "",
    "website": "",
    "opening_hours": "",
    "osm_id": 12889371582,
    "osm_type": "node"
  },
  {
    "name": "Bouldering Project",
    "lat": 42.3817435,
    "lon": -71.1067931,
    "city": "",
    "state": "",
    "website": "https://boulderingproject.com/location/somerville/",
    "opening_hours": "Mo-Fr 06:00-23:00; Sa-Su 08:00-22:00",
    "osm_id": 12920338298,
    "osm_type": "node"
  },
  {
    "name": "Bloc Garten",
    "lat": 39.9504495,
    "lon": -83.0079702,
    "city": "Columbus",
    "state": "Ohio",
    "website": "https://5.life/bg/",
    "opening_hours": "Mo-Fr 12:00-22:00; Sa-Su 09:00-18:00",
    "osm_id": 12966840900,
    "osm_type": "node"
  },
  {
    "name": "Hub Climbing - Mississauga",
    "lat": 43.5737756,
    "lon": -79.6534227,
    "city": "Mississauga",
    "state": "",
    "website": "https://hubclimbing.com/mississauga/",
    "opening_hours": "",
    "osm_id": 12990064001,
    "osm_type": "node"
  },
  {
    "name": "Romper Room",
    "lat": 49.2079939,
    "lon": -124.0378335,
    "city": "Nanaimo",
    "state": "",
    "website": "https://climbromperroom.com/",
    "opening_hours": "Mo 14:00-22:00; Tu-Fr 10:00-22:00; Sa,Su 10:00-18:00",
    "osm_id": 12999636595,
    "osm_type": "node"
  },
  {
    "name": "Campus Recreation Climbing Wall",
    "lat": 40.5078934,
    "lon": -88.9938551,
    "city": "",
    "state": "",
    "website": "",
    "opening_hours": "",
    "osm_id": 13005813698,
    "osm_type": "node"
  },
  {
    "name": "Boardworks Climbing",
    "lat": 44.0391028,
    "lon": -121.3032356,
    "city": "",
    "state": "",
    "website": "",
    "opening_hours": "",
    "osm_id": 13016346767,
    "osm_type": "node"
  },
  {
    "name": "Progression Bouldering",
    "lat": 49.2621505,
    "lon": -123.0996029,
    "city": "",
    "state": "",
    "website": "https://www.progressionbouldering.com/",
    "opening_hours": "Mo-We 07:00-22:00; Th-Fr 07:00-23:00; Sa 09:00-23:00; Su 09:00-22:00",
    "osm_id": 13027768701,
    "osm_type": "node"
  },
  {
    "name": "The Boulder Garden",
    "lat": 35.9998164,
    "lon": -78.9020993,
    "city": "",
    "state": "",
    "website": "https://www.thebouldergarden.com/",
    "opening_hours": "Mo-Fr 16:00-22:00; Sa-Su 10:00-18:00",
    "osm_id": 13039533001,
    "osm_type": "node"
  },
  {
    "name": "Inner Peaks NoDa",
    "lat": 35.2416733,
    "lon": -80.8247539,
    "city": "",
    "state": "",
    "website": "",
    "opening_hours": "",
    "osm_id": 13051541868,
    "osm_type": "node"
  },
  {
    "name": "Vital Climbing",
    "lat": 40.7176003,
    "lon": -73.9863546,
    "city": "New York",
    "state": "New York",
    "website": "https://www.vitalclimbinggym.com/lower-east-side",
    "opening_hours": "",
    "osm_id": 13062290352,
    "osm_type": "node"
  },
  {
    "name": "Hapik",
    "lat": 32.9518415,
    "lon": -96.6122848,
    "city": "",
    "state": "",
    "website": "",
    "opening_hours": "",
    "osm_id": 13062704002,
    "osm_type": "node"
  },
  {
    "name": "Rock Spot Climbing: Lincoln",
    "lat": 41.886285,
    "lon": -71.4084298,
    "city": "",
    "state": "",
    "website": "",
    "opening_hours": "",
    "osm_id": 13070103656,
    "osm_type": "node"
  },
  {
    "name": "Rock Spot Climbing",
    "lat": 41.4506538,
    "lon": -71.4970694,
    "city": "",
    "state": "",
    "website": "https://peacedale.rockspotclimbing.com/",
    "opening_hours": "",
    "osm_id": 13072775759,
    "osm_type": "node"
  },
  {
    "name": "Climbing",
    "lat": 37.2485838,
    "lon": -122.1450225,
    "city": "",
    "state": "",
    "website": "",
    "opening_hours": "",
    "osm_id": 13083930609,
    "osm_type": "node"
  },
  {
    "name": "Hogtown Boulders",
    "lat": 43.7621379,
    "lon": -79.3602459,
    "city": "",
    "state": "",
    "website": "https://hogtownboulders.com/",
    "opening_hours": "",
    "osm_id": 13094917176,
    "osm_type": "node"
  },
  {
    "name": "Kong Climbing",
    "lat": 43.7712028,
    "lon": -79.3225986,
    "city": "",
    "state": "",
    "website": "https://kongclimbing.ca/",
    "opening_hours": "",
    "osm_id": 13094917177,
    "osm_type": "node"
  },
  {
    "name": "Hub Climbing Markham",
    "lat": 43.8570552,
    "lon": -79.3573763,
    "city": "",
    "state": "",
    "website": "https://hubclimbing.com/",
    "opening_hours": "Mo-Fr 12:00-23:00; Sa-Su 10:00-22:00",
    "osm_id": 13116611401,
    "osm_type": "node"
  },
  {
    "name": "Garden State Rocks",
    "lat": 40.3519287,
    "lon": -74.293197,
    "city": "Morganville",
    "state": "New Jersey",
    "website": "https://www.gardenstaterocks.com/",
    "opening_hours": "Mo-Fr 16:00-22:00; Sa-Su 12:00-19:00",
    "osm_id": 13133988896,
    "osm_type": "node"
  },
  {
    "name": "The Gravity Vault",
    "lat": 40.731647,
    "lon": -74.3810464,
    "city": "Chatham",
    "state": "New Jersey",
    "website": "https://gravityvault.com/locations/chatham-nj",
    "opening_hours": "",
    "osm_id": 13136482090,
    "osm_type": "node"
  },
  {
    "name": "Movement Centennial",
    "lat": 39.568914,
    "lon": -104.8748659,
    "city": "",
    "state": "",
    "website": "",
    "opening_hours": "",
    "osm_id": 13139992475,
    "osm_type": "node"
  },
  {
    "name": "The Spot Thorton",
    "lat": 39.868077,
    "lon": -104.9797739,
    "city": "Thornton",
    "state": "Colorado",
    "website": "https://www.thespotgym.com/locations/thornton/",
    "opening_hours": "",
    "osm_id": 13140031455,
    "osm_type": "node"
  },
  {
    "name": "Beyond The Wall Climbing",
    "lat": 45.5115799,
    "lon": -122.9715959,
    "city": "",
    "state": "",
    "website": "",
    "opening_hours": "Mo-Fr 12:00-22:00; Sa,Su 10:00-20:00",
    "osm_id": 13141574644,
    "osm_type": "node"
  },
  {
    "name": "Délire Escalade Lévis",
    "lat": 46.7957539,
    "lon": -71.1799186,
    "city": "Lévis",
    "state": "",
    "website": "https://www.delirescalade.com",
    "opening_hours": "Mo-Fr 11:00-22:00; Sa-Su 09:00-21:00",
    "osm_id": 13160256909,
    "osm_type": "node"
  },
  {
    "name": "The Pad Climbing",
    "lat": 34.4368168,
    "lon": -119.8040126,
    "city": "Goleta",
    "state": "California",
    "website": "https://thepadclimbing.org/santa-barbara/",
    "opening_hours": "11:00-22:00",
    "osm_id": 13168235877,
    "osm_type": "node"
  },
  {
    "name": "The Boulder Yard",
    "lat": 39.3908076,
    "lon": -77.4162383,
    "city": "Frederick",
    "state": "Maryland",
    "website": "",
    "opening_hours": "",
    "osm_id": 13180620432,
    "osm_type": "node"
  },
  {
    "name": "Vital Climbing Gym",
    "lat": 33.5610874,
    "lon": -117.136447,
    "city": "",
    "state": "",
    "website": "",
    "opening_hours": "",
    "osm_id": 13198451301,
    "osm_type": "node"
  },
  {
    "name": "MW Climbing",
    "lat": 40.8175258,
    "lon": -96.6515665,
    "city": "Lincoln",
    "state": "Nebraska",
    "website": "",
    "opening_hours": "Mo-Fr 11:00-22:00; Sa-Su 10:00-20:00",
    "osm_id": 13231708885,
    "osm_type": "node"
  },
  {
    "name": "Altitude Gym Orléans",
    "lat": 45.481224,
    "lon": -75.509286,
    "city": "Orléans",
    "state": "",
    "website": "",
    "opening_hours": "",
    "osm_id": 13285595815,
    "osm_type": "node"
  },
  {
    "name": "Bloc 9.81",
    "lat": 45.4669687,
    "lon": -75.7187471,
    "city": "Gatineau",
    "state": "",
    "website": "https://bloc981.com",
    "opening_hours": "Mo-Fr 08:00-22:00; Sa-Su 09:00-23:00",
    "osm_id": 13289343600,
    "osm_type": "node"
  },
  {
    "name": "Coastal Climbing Centre",
    "lat": 49.1430356,
    "lon": -122.8662525,
    "city": "",
    "state": "",
    "website": "https://coastalclimbing.ca/",
    "opening_hours": "Mo-Fr 16:00-22:00; Sa 11:00-20:00; Su 11:00-17:00",
    "osm_id": 13299915001,
    "osm_type": "node"
  },
  {
    "name": "St. Paul Bouldering Project",
    "lat": 44.9385043,
    "lon": -93.0915636,
    "city": "Saint Paul",
    "state": "Minnesota",
    "website": "",
    "opening_hours": "Mo-Fr 06:00-23:00; Sa-Su 07:00-22:00",
    "osm_id": 13313615423,
    "osm_type": "node"
  },
  {
    "name": "Basin Climbing and Fitness",
    "lat": 31.4664749,
    "lon": -97.1798376,
    "city": "Hewitt",
    "state": "Texas",
    "website": "https://www.basinclimbing.com/",
    "opening_hours": "Mo-Fr 05:00-21:00; Sa 09:00-21:00; Su 14:00-20:00",
    "osm_id": 13317971740,
    "osm_type": "node"
  },
  {
    "name": "Insight Climbing & Movement",
    "lat": 47.5653285,
    "lon": -122.6496489,
    "city": "Bremerton",
    "state": "Washington",
    "website": "https://www.insightclimbing.com/bremerton/view-1",
    "opening_hours": "Tu-Fr 11:00-21:00; Sa-Su 10:00-17:00",
    "osm_id": 13347402201,
    "osm_type": "node"
  },
  {
    "name": "Momentum Indoor Climbing",
    "lat": 29.7751278,
    "lon": -95.8161609,
    "city": "",
    "state": "",
    "website": "https://momentumclimbing.com/katy/",
    "opening_hours": "Mo-Fr 08:00-23:00; Sa 08:00-22:00; Su 08:00-20:00",
    "osm_id": 13354400401,
    "osm_type": "node"
  },
  {
    "name": "Up the Bloc",
    "lat": 43.6035407,
    "lon": -79.5845703,
    "city": "Mississauga",
    "state": "",
    "website": "https://www.upthebloc.com/",
    "opening_hours": "Mo-Fr 10:00-23:00; Sa,Su 09:00-22:00",
    "osm_id": 13381140953,
    "osm_type": "node"
  },
  {
    "name": "Lindseth Climbing Center",
    "lat": 42.4458505,
    "lon": -76.4756032,
    "city": "Ithaca",
    "state": "New York",
    "website": "https://scl.cornell.edu/coe/lindseth-climbing-center",
    "opening_hours": "",
    "osm_id": 13381797560,
    "osm_type": "node"
  },
  {
    "name": "Rock Wall @ Nomad's",
    "lat": 41.8294784,
    "lon": -72.6093481,
    "city": "",
    "state": "",
    "website": "",
    "opening_hours": "",
    "osm_id": 13385834744,
    "osm_type": "node"
  },
  {
    "name": "Momentum Indoor Climbing Trolley Square",
    "lat": 40.7572888,
    "lon": -111.8734984,
    "city": "Salt Lake City",
    "state": "Utah",
    "website": "https://momentumclimbing.com/trolleysquare/",
    "opening_hours": "Mo-Fr 06:00-23:00; Sa 08:00-2200; Su 08:00-18:00",
    "osm_id": 13396410334,
    "osm_type": "node"
  },
  {
    "name": "Table Rock",
    "lat": 42.4515387,
    "lon": -75.0632604,
    "city": "",
    "state": "",
    "website": "",
    "opening_hours": "Mo,We,Fr,Su off; Tu,Th 15:00-21:00; Sa 14:00-20:00",
    "osm_id": 13401616627,
    "osm_type": "node"
  },
  {
    "name": "Tufas Boulder Lounge",
    "lat": 39.9759354,
    "lon": -75.1438759,
    "city": "Philadelphia",
    "state": "Pennsylvania",
    "website": "https://tufasboulderlounge.com/",
    "opening_hours": "Mo,We,Fr 06:00-22:00; Tu,Th 09:00-22:00; Sa,Su 10:00-20:00",
    "osm_id": 13403525808,
    "osm_type": "node"
  },
  {
    "name": "The Knot - Climbing Gym",
    "lat": 29.6455476,
    "lon": -82.3253012,
    "city": "Gainesville",
    "state": "Florida",
    "website": "https://climbtheknot.com",
    "opening_hours": "",
    "osm_id": 13413871275,
    "osm_type": "node"
  },
  {
    "name": "Boulder Bloc Gym",
    "lat": 26.2319957,
    "lon": -80.1192109,
    "city": "",
    "state": "",
    "website": "https://www.boulderblocgym.com",
    "opening_hours": "Mo-Fr 12:00-22:00; Sa 09:00-21:00; Su 09:00-17:00",
    "osm_id": 13427587101,
    "osm_type": "node"
  },
  {
    "name": "The Gravity Vault - Middletown, NJ",
    "lat": 40.3862203,
    "lon": -74.0880513,
    "city": "Middletown",
    "state": "New Jersey",
    "website": "https://gravityvault.com/locations/middletown-nj",
    "opening_hours": "Mo-Fr 09:00-22:00; Sa-Su 09:00-20:00",
    "osm_id": 13429327103,
    "osm_type": "node"
  },
  {
    "name": "The Gravity Vault",
    "lat": 40.3366077,
    "lon": -74.5946741,
    "city": "",
    "state": "",
    "website": "",
    "opening_hours": "",
    "osm_id": 13456018298,
    "osm_type": "node"
  },
  {
    "name": "Black Hills Basecamp",
    "lat": 44.1107293,
    "lon": -103.1720627,
    "city": "Rapid City",
    "state": "South Dakota",
    "website": "https://www.bhbasecamp.com/",
    "opening_hours": "Mo-Su 13:00-20:00",
    "osm_id": 13475564801,
    "osm_type": "node"
  },